[{"PK":6070995,"NOMBRE":"Jardines Gregorio Ord\u00f3\u00f1ez","TRANSPORTE":"Metro: N\u00fa\u00f1ez de Balboa (l\u00edneas 5 y 9) Bus: 1, 29, 52, 74  Servicio Bicimad, para consultar la estaci\u00f3n m\u00e1s cercana, acceda al mapa de geolocalizaci\u00f3n de las estaciones.","CLASE-VIA":"CALLE","NOMBRE-VIA":"PRINCIPE DE VERGARA","NUM":68.0,"BARRIO":"LISTA","DISTRITO":"SALAMANCA","COORDENADA-X":442443.0,"COORDENADA-Y":4476090.0,"LATITUD":40.4334618678,"LONGITUD":-3.6785954779},{"PK":6010361,"NOMBRE":"Jardines San Francisco el Grande","TRANSPORTE":"Bus: 3, 60 y 148.  Servicio Bicimad, para consultar la estaci\u00f3n m\u00e1s cercana, acceda al mapa de geolocalizaci\u00f3n de las estaciones.","CLASE-VIA":"AVENIDA","NOMBRE-VIA":"GRAN VIA DE SAN FRANCISCO","NUM":25.0,"BARRIO":"PALACIO","DISTRITO":"CENTRO","COORDENADA-X":439572.0,"COORDENADA-Y":4473192.0,"LATITUD":40.4100224962,"LONGITUD":-3.7144199128},{"PK":5964519,"NOMBRE":"Jardines de Andr\u00e9s Saborit","TRANSPORTE":"Metro: Nuevos Ministerios (l\u00edneas 6, 8 y 10) Bus: 5, 68, 149, C1, C2 RENFE: Nuevos Ministerios  Servicio Bicimad, para consultar la estaci\u00f3n m\u00e1s cercana, acceda al mapa de geolocalizaci\u00f3n de las estaciones.","CLASE-VIA":"CALLE","NOMBRE-VIA":"RAIMUNDO FERNANDEZ VILLAVERDE","NUM":32.0,"BARRIO":"RIOS ROSAS","DISTRITO":"CHAMBERI","COORDENADA-X":440726.0,"COORDENADA-Y":4477510.0,"LATITUD":40.4461332679,"LONGITUD":-3.6989699296},{"PK":5896013,"NOMBRE":"Jardines de El Buen Retiro","TRANSPORTE":"Metro: Retiro (l\u00ednea 2), Pr\u00edncipe de Vergara (l\u00edneas 2 y 9), Ibiza (l\u00ednea 9), Atocha (l\u00ednea 1), Atocha. Renfe (l\u00ednea 1) Autobuses: 1, 2, 9, 14, 15, 19, 20, 26, 28, 32, 51, 52, 61, 63, 74, 146, 152, 202, C  Servicio Bicimad, para consultar la estaci\u00f3n m\u00e1s cercana, acceda al mapa de geolocalizaci\u00f3n de las estaciones.","CLASE-VIA":"PLAZA","NOMBRE-VIA":"INDEPENDENCIA","NUM":7.0,"BARRIO":"LOS JERONIMOS","DISTRITO":"RETIRO","COORDENADA-X":441640.0,"COORDENADA-Y":4474563.0,"LATITUD":40.4196408741,"LONGITUD":-3.6879337094},{"PK":10984428,"NOMBRE":"Jardines de Gloria Fuertes","TRANSPORTE":"Metro: l\u00ednea 9 (Colombia) Bus: 16,29,150  Servicio Bicimad, para consultar la estaci\u00f3n m\u00e1s cercana, acceda al mapa de geolocalizaci\u00f3n de las estaciones.","CLASE-VIA":"CALLE","NOMBRE-VIA":"MADRE DE DIOS","NUM":2.0,"BARRIO":"NUEVA ESPA\u00d1A","DISTRITO":"CHAMARTIN","COORDENADA-X":442761.0,"COORDENADA-Y":4479202.0,"LATITUD":40.4615176377,"LONGITUD":-3.6751179007},{"PK":5979527,"NOMBRE":"Jardines de Jos\u00e9 Luis Jim\u00e9nez Manso","TRANSPORTE":"Metro: Estrella (l\u00ednea 9) Bus: 20, 30, 32  Servicio Bicimad, para consultar la estaci\u00f3n m\u00e1s cercana, acceda al mapa de geolocalizaci\u00f3n de las estaciones.","CLASE-VIA":"CALLE","NOMBRE-VIA":"CAMINO DE LOS VINATEROS","NUM":1.0,"BARRIO":"MEDIA LEGUA","DISTRITO":"MORATALAZ","COORDENADA-X":443959.0,"COORDENADA-Y":4473579.0,"LATITUD":40.4109449432,"LONGITUD":-3.6605017337},{"PK":5965620,"NOMBRE":"Jardines de Per\u00f3n","TRANSPORTE":"Metro: Santiago Bernab\u00e9u (l\u00ednea 10) Bus: 3, 5, 43, 149  Servicio Bicimad, para consultar la estaci\u00f3n m\u00e1s cercana, acceda al mapa de geolocalizaci\u00f3n de las estaciones.","CLASE-VIA":"AVENIDA","NOMBRE-VIA":"GENERAL PERON","NUM":21.0,"BARRIO":"CUATRO CAMINOS","DISTRITO":"TETUAN","COORDENADA-X":441002.0,"COORDENADA-Y":4478224.0,"LATITUD":40.452575915,"LONGITUD":-3.6957817548},{"PK":6010175,"NOMBRE":"Jardines de Sabatini","TRANSPORTE":"Metro: Opera   Bus: 2, 146   Servicio Bicimad, para consultar la estaci\u00f3n m\u00e1s cercana, acceda al mapa de geolocalizaci\u00f3n de las estaciones.","CLASE-VIA":"CALLE","NOMBRE-VIA":"BAILEN","NUM":2.0,"BARRIO":"PALACIO","DISTRITO":"CENTRO","COORDENADA-X":439498.0,"COORDENADA-Y":4474610.0,"LATITUD":40.4199112871,"LONGITUD":-3.7131853089},{"PK":5965246,"NOMBRE":"Jardines de San Fernando","TRANSPORTE":"Metro: Cuzco (l\u00ednea 10) B\u00fas: 5, 11, 40, 140, 150  Servicio Bicimad, para consultar la estaci\u00f3n m\u00e1s cercana, acceda al mapa de geolocalizaci\u00f3n de las estaciones.","CLASE-VIA":"AVENIDA","NOMBRE-VIA":"ALBERTO ALCOCER","NUM":9.0,"BARRIO":"NUEVA ESPA\u00d1A","DISTRITO":"CHAMARTIN","COORDENADA-X":441724.0,"COORDENADA-Y":4479019.0,"LATITUD":40.4597884909,"LONGITUD":-3.6873523422},{"PK":5965719,"NOMBRE":"Jardines de la Avenida de Brasil","TRANSPORTE":"Bus: 5, 126, 149  Servicio Bicimad, para consultar la estaci\u00f3n m\u00e1s cercana, acceda al mapa de geolocalizaci\u00f3n de las estaciones.","CLASE-VIA":"AVENIDA","NOMBRE-VIA":"BRASIL","NUM":31.0,"BARRIO":"CASTILLEJOS","DISTRITO":"TETUAN","COORDENADA-X":441204.0,"COORDENADA-Y":4478902.0,"LATITUD":40.458706953,"LONGITUD":-3.6934625569},{"PK":5965967,"NOMBRE":"Jardines de la Bas\u00edlica","TRANSPORTE":"Metro: Nuevos Ministerios (l\u00edneas 6, 8 y 10) RENFE: Nuevos Ministerios Bus: 5 , 69 y 149  Servicio Bicimad, para consultar la estaci\u00f3n m\u00e1s cercana, acceda al mapa de geolocalizaci\u00f3n de las estaciones.","CLASE-VIA":"CALLE","NOMBRE-VIA":"BASILICA","NUM":15.0,"BARRIO":"CUATRO CAMINOS","DISTRITO":"TETUAN","COORDENADA-X":441014.0,"COORDENADA-Y":4477831.0,"LATITUD":40.4490363813,"LONGITUD":-3.6956155307},{"PK":5964911,"NOMBRE":"Jardines de la Plaza Conde del Valle de Suchil","TRANSPORTE":"Metro: San Bernardo (l\u00edneas 2 y 4) Bus: 16, 21, 61  Servicio Bicimad, para consultar la estaci\u00f3n m\u00e1s cercana, acceda al mapa de geolocalizaci\u00f3n de las estaciones.","CLASE-VIA":"CALLE","NOMBRE-VIA":"RODRIGUEZ SAN PEDRO","NUM":3.0,"BARRIO":"ARAPILES","DISTRITO":"CHAMBERI","COORDENADA-X":440078.0,"COORDENADA-Y":4475877.0,"LATITUD":40.4313759737,"LONGITUD":-3.7064685007},{"PK":5963489,"NOMBRE":"Jardines de la Plaza de Chamber\u00ed","TRANSPORTE":"Metro: Iglesia (l\u00ednea 1) Bus: 3, 40 y 147  Servicio Bicimad, para consultar la estaci\u00f3n m\u00e1s cercana, acceda al mapa de geolocalizaci\u00f3n de las estaciones.","CLASE-VIA":"PLAZA","NOMBRE-VIA":"CHAMBERI","NUM":1.0,"BARRIO":"ALMAGRO","DISTRITO":"CHAMBERI","COORDENADA-X":440832.0,"COORDENADA-Y":4476036.0,"LATITUD":40.4328532875,"LONGITUD":-3.697594476},{"PK":5963151,"NOMBRE":"Jardines de la Plaza de Olavide","TRANSPORTE":"Metro: Bilbao (l\u00ednea 1, 4) Bus: 3, 16, 37, 40, 61, 149  Servicio Bicimad, para consultar la estaci\u00f3n m\u00e1s cercana, acceda al mapa de geolocalizaci\u00f3n de las estaciones.","CLASE-VIA":"PLAZA","NOMBRE-VIA":"OLAVIDE","NUM":16.0,"BARRIO":"TRAFALGAR","DISTRITO":"CHAMBERI","COORDENADA-X":440560.0,"COORDENADA-Y":4475996.0,"LATITUD":40.4324736268,"LONGITUD":-3.7007855622},{"PK":6010975,"NOMBRE":"Jardines de la Plaza de Oriente, Lepanto y Cabo Noval","TRANSPORTE":"Metro: \u00d3pera (l\u00edneas 2, 5 y ramal) Autob\u00fas: 25, 39  Servicio Bicimad, para consultar la estaci\u00f3n m\u00e1s cercana, acceda al mapa de geolocalizaci\u00f3n de las estaciones.","CLASE-VIA":"CALLE","NOMBRE-VIA":"BAILEN","NUM":17.0,"BARRIO":"PALACIO","DISTRITO":"CENTRO","COORDENADA-X":439526.0,"COORDENADA-Y":4474437.0,"LATITUD":40.4183548607,"LONGITUD":-3.7128388306},{"PK":6067949,"NOMBRE":"Jardines de la Plaza de la Villa de Par\u00eds","TRANSPORTE":"Metro: Col\u00f3n (l\u00ednea 4) Bus: 5, 14, 21 ,27, 37, 45, 53, 150  Servicio Bicimad, para consultar la estaci\u00f3n m\u00e1s cercana, acceda al mapa de geolocalizaci\u00f3n de las estaciones.","CLASE-VIA":"CALLE","NOMBRE-VIA":"GENERAL CASTA\u00d1OS","NUM":6.0,"BARRIO":"JUSTICIA","DISTRITO":"CENTRO","COORDENADA-X":441178.0,"COORDENADA-Y":4475295.0,"LATITUD":40.4262025523,"LONGITUD":-3.6934468984},{"PK":6009972,"NOMBRE":"Jardines de la Vega","TRANSPORTE":"Bus: 31 , 41 , 50 , 65  Servicio Bicimad, para consultar la estaci\u00f3n m\u00e1s cercana, acceda al mapa de geolocalizaci\u00f3n de las estaciones.","CLASE-VIA":"CUESTA","NOMBRE-VIA":"VEGA","NUM":1.0,"BARRIO":"PALACIO","DISTRITO":"CENTRO","COORDENADA-X":439301.0,"COORDENADA-Y":4474039.0,"LATITUD":40.414762198,"LONGITUD":-3.7154411143},{"PK":5990847,"NOMBRE":"Jardines de la calle Teresita Gonz\u00e1lez Quevedo","TRANSPORTE":"Bus: 3, 5, 126   Servicio Bicimad, para consultar la estaci\u00f3n m\u00e1s cercana, acceda al mapa de geolocalizaci\u00f3n de las estaciones.","CLASE-VIA":"PLAZA","NOMBRE-VIA":"SAN AMARO","NUM":4.0,"BARRIO":"CUATRO CAMINOS","DISTRITO":"TETUAN","COORDENADA-X":440900.0,"COORDENADA-Y":4478558.0,"LATITUD":40.4555864202,"LONGITUD":-3.6970275649},{"PK":6011090,"NOMBRE":"Jardines de las Vistillas","TRANSPORTE":"Bus: 3, 31, 50, 65, 148  Servicio Bicimad, para consultar la estaci\u00f3n m\u00e1s cercana, acceda al mapa de geolocalizaci\u00f3n de las estaciones.","CLASE-VIA":"CALLE","NOMBRE-VIA":"MORERIA","NUM":12.0,"BARRIO":"PALACIO","DISTRITO":"CENTRO","COORDENADA-X":439391.0,"COORDENADA-Y":4473822.0,"LATITUD":40.4128139221,"LONGITUD":-3.7143597157},{"PK":6011574,"NOMBRE":"Jardines del Arquitecto Ribera","TRANSPORTE":"Metro: Tribunal (l\u00edneas 1 y 10) Bus: 3, 40, 149  Servicio Bicimad, para consultar la estaci\u00f3n m\u00e1s cercana, acceda al mapa de geolocalizaci\u00f3n de las estaciones.","CLASE-VIA":"CALLE","NOMBRE-VIA":"BARCELO","NUM":2.0,"BARRIO":"JUSTICIA","DISTRITO":"CENTRO","COORDENADA-X":440596.0,"COORDENADA-Y":4475321.0,"LATITUD":40.4264044979,"LONGITUD":-3.7002981749},{"PK":6010463,"NOMBRE":"Jardines del Descubrimiento","TRANSPORTE":"Metro: Col\u00f3n (l\u00ednea 4) y Serrano (l\u00ednea 4) Bus: 1, 5, 9, 14, 19, 21, 27, 45, 51, 53, 74 y 150  Servicio Bicimad, para consultar la estaci\u00f3n m\u00e1s cercana, acceda al mapa de geolocalizaci\u00f3n de las estaciones.","CLASE-VIA":"CALLE","NOMBRE-VIA":"GOYA","NUM":2.0,"BARRIO":"RECOLETOS","DISTRITO":"SALAMANCA","COORDENADA-X":441573.0,"COORDENADA-Y":4475179.0,"LATITUD":40.425185403,"LONGITUD":-3.6887800208},{"PK":6076087,"NOMBRE":"Jardines del Doctor Fleming","TRANSPORTE":"Metro: Cuzco (l\u00ednea 10) Bus: 27, 40 , 126, 147 y 150  Servicio Bicimad, para consultar la estaci\u00f3n m\u00e1s cercana, acceda al mapa de geolocalizaci\u00f3n de las estaciones.","CLASE-VIA":"CALLE","NOMBRE-VIA":"DOCTOR FLEMING","NUM":1.0,"BARRIO":"HISPANOAMERICA","DISTRITO":"CHAMARTIN","COORDENADA-X":441546.0,"COORDENADA-Y":4478437.0,"LATITUD":40.4545421576,"LONGITUD":-3.6893863385},{"PK":5965543,"NOMBRE":"Jardines del Mundial. Castellana","TRANSPORTE":"Metro: Santiago Bernab\u00e9u (l\u00ednea 10) B\u00fas: 14, 27, 40, 126, 147, 150  Servicio Bicimad, para consultar la estaci\u00f3n m\u00e1s cercana, acceda al mapa de geolocalizaci\u00f3n de las estaciones.","CLASE-VIA":"PASEO","NOMBRE-VIA":"CASTELLANA","NUM":142.0,"BARRIO":"HISPANOAMERICA","DISTRITO":"CHAMARTIN","COORDENADA-X":441546.0,"COORDENADA-Y":4478277.0,"LATITUD":40.4530917283,"LONGITUD":-3.6893833083},{"PK":6011769,"NOMBRE":"Jardines del Pr\u00edncipe de Anglona","TRANSPORTE":"Metro: La Latina (l\u00ednea 5) Bus: 3 , 31 , 50 , 65 , 148   Servicio Bicimad, para consultar la estaci\u00f3n m\u00e1s cercana, acceda al mapa de geolocalizaci\u00f3n de las estaciones.","CLASE-VIA":"PLAZA","NOMBRE-VIA":"PAJA","NUM":6.0,"BARRIO":"PALACIO","DISTRITO":"CENTRO","COORDENADA-X":439638.0,"COORDENADA-Y":4473887.0,"LATITUD":40.4134173491,"LONGITUD":-3.7114666498},{"PK":6081387,"NOMBRE":"Jard\u00edn Bot\u00e1nico de Pradolongo","TRANSPORTE":"Metro: Hospital Doce de Octubre (l\u00ednea 3) Bus: 6 , 60 , 78 , 81 , 121 , 131 RENFE: Doce de Octubre  Servicio Bicimad, para consultar la estaci\u00f3n m\u00e1s cercana, acceda al mapa de geolocalizaci\u00f3n de las estaciones.","CLASE-VIA":"AVENIDA","NOMBRE-VIA":"RAFAELA YBARRA","NUM":0.0,"BARRIO":"PRADOLONGO","DISTRITO":"USERA","COORDENADA-X":439542.0,"COORDENADA-Y":4469484.0,"LATITUD":40.3737459966,"LONGITUD":-3.7121800563},{"PK":5962990,"NOMBRE":"Jard\u00edn Concejal Alejandro Mu\u00f1oz Revenga","TRANSPORTE":"Bus: 2, 16, 61 y 202  Servicio Bicimad, para consultar la estaci\u00f3n m\u00e1s cercana, acceda al mapa de geolocalizaci\u00f3n de las estaciones.","CLASE-VIA":"CALLE","NOMBRE-VIA":"MELENDEZ VALDES","NUM":32.0,"BARRIO":"GAZTAMBIDE","DISTRITO":"CHAMBERI","COORDENADA-X":439591.0,"COORDENADA-Y":4476067.0,"LATITUD":40.4330433406,"LONGITUD":-3.7122275827},{"PK":5964859,"NOMBRE":"Jard\u00edn Do\u00f1a Concha Piquer","TRANSPORTE":"Metro: Pir\u00e1mides (l\u00ednea 5) Bus: 18 , 23 , 34 , 35 , 36 , 116 , 118 , 119  Servicio Bicimad, para consultar la estaci\u00f3n m\u00e1s cercana, acceda al mapa de geolocalizaci\u00f3n de las estaciones.","CLASE-VIA":"PASEO","NOMBRE-VIA":"IMPERIAL","NUM":93.0,"BARRIO":"IMPERIAL","DISTRITO":"ARGANZUELA","COORDENADA-X":439330.0,"COORDENADA-Y":4472632.0,"LATITUD":40.4020803975,"LONGITUD":-3.7149650863},{"PK":5964601,"NOMBRE":"Jard\u00edn Fachada Pir\u00e1mides I","TRANSPORTE":"Metro: Pir\u00e1mides (Linea 5) Bus: 18, 23 , 34, 35, 36, 116, 118, 119  Servicio Bicimad, para consultar la estaci\u00f3n m\u00e1s cercana, acceda al mapa de geolocalizaci\u00f3n de las estaciones.","CLASE-VIA":"PASEO","NOMBRE-VIA":"ACACIAS","NUM":60.0,"BARRIO":"ACACIAS","DISTRITO":"ARGANZUELA","COORDENADA-X":439486.0,"COORDENADA-Y":4472564.0,"LATITUD":40.4014881091,"LONGITUD":-3.7131322551},{"PK":6011700,"NOMBRE":"Jard\u00edn Glorieta de Azor\u00edn","TRANSPORTE":"Bus: 31 , 41 , 50 , 65  Servicio Bicimad, para consultar la estaci\u00f3n m\u00e1s cercana, acceda al mapa de geolocalizaci\u00f3n de las estaciones.","CLASE-VIA":"CUESTA","NOMBRE-VIA":"VEGA","NUM":3.0,"BARRIO":"PALACIO","DISTRITO":"CENTRO","COORDENADA-X":439239.0,"COORDENADA-Y":4474040.0,"LATITUD":40.4147576739,"LONGITUD":-3.7161718358},{"PK":5994445,"NOMBRE":"Jard\u00edn Jazm\u00edn","TRANSPORTE":"Bus: 29, 125, 129, 150  Servicio Bicimad, para consultar la estaci\u00f3n m\u00e1s cercana, acceda al mapa de geolocalizaci\u00f3n de las estaciones.","CLASE-VIA":"CALLE","NOMBRE-VIA":"ROQUETAS DE MAR","NUM":10.0,"BARRIO":"APOSTOL SANTIAGO","DISTRITO":"HORTALEZA","COORDENADA-X":444053.0,"COORDENADA-Y":4481442.0,"LATITUD":40.4817850941,"LONGITUD":-3.6600983322},{"PK":6010978,"NOMBRE":"Jard\u00edn Palacio O'Reilly","TRANSPORTE":"Bus: 31, 50, 65  Servicio Bicimad, para consultar la estaci\u00f3n m\u00e1s cercana, acceda al mapa de geolocalizaci\u00f3n de las estaciones.","CLASE-VIA":"PLAZA","NOMBRE-VIA":"CRUZ VERDE","NUM":2.0,"BARRIO":"PALACIO","DISTRITO":"CENTRO","COORDENADA-X":439608.0,"COORDENADA-Y":4473974.0,"LATITUD":40.4141899004,"LONGITUD":-3.7118283821},{"PK":5963709,"NOMBRE":"Jard\u00edn de Embajadores M-30","TRANSPORTE":"Bus: 62 y 88  Servicio Bicimad, para consultar la estaci\u00f3n m\u00e1s cercana, acceda al mapa de geolocalizaci\u00f3n de las estaciones.","CLASE-VIA":"CALLE","NOMBRE-VIA":"PUERTO DE LA CRUZ VERDE","NUM":29.0,"BARRIO":"LEGAZPI","DISTRITO":"ARGANZUELA","COORDENADA-X":441788.0,"COORDENADA-Y":4470626.0,"LATITUD":40.3841847344,"LONGITUD":-3.6858174525},{"PK":6011067,"NOMBRE":"Jard\u00edn de Larra","TRANSPORTE":"Metro: Opera (l\u00edneas 2, 5 y ramal) Bus: 3, 148  Servicio Bicimad, para consultar la estaci\u00f3n m\u00e1s cercana, acceda al mapa de geolocalizaci\u00f3n de las estaciones.","CLASE-VIA":"CALLE","NOMBRE-VIA":"FACTOR","NUM":7.0,"BARRIO":"PALACIO","DISTRITO":"CENTRO","COORDENADA-X":439528.0,"COORDENADA-Y":4474211.0,"LATITUD":40.4163190957,"LONGITUD":-3.7127937712},{"PK":5996843,"NOMBRE":"Jard\u00edn de la Colonia Congosto","TRANSPORTE":"Metro: Congosto (l\u00ednea 1) Bus: 54 y L1  Servicio Bicimad, para consultar la estaci\u00f3n m\u00e1s cercana, acceda al mapa de geolocalizaci\u00f3n de las estaciones.","CLASE-VIA":"CALLE","NOMBRE-VIA":"CONGOSTO","NUM":70.0,"BARRIO":"CASCO H.VALLECAS","DISTRITO":"VILLA DE VALLECAS","COORDENADA-X":447504.0,"COORDENADA-Y":4469108.0,"LATITUD":40.3708982553,"LONGITUD":-3.6183658548},{"PK":5967788,"NOMBRE":"Jard\u00edn de las Bellas Artes","TRANSPORTE":"Metro: Gregorio Mara\u00f1\u00f3n (l\u00edneas 7 y 10) B\u00fas: 7, 12, 14, 27, 40, 45, 147 y 150  Servicio Bicimad, para consultar la estaci\u00f3n m\u00e1s cercana, acceda al mapa de geolocalizaci\u00f3n de las estaciones.","CLASE-VIA":"PASEO","NOMBRE-VIA":"CASTELLANA","NUM":78.0,"BARRIO":"EL VISO","DISTRITO":"CHAMARTIN","COORDENADA-X":441434.0,"COORDENADA-Y":4476714.0,"LATITUD":40.4390037058,"LONGITUD":-3.6905481652},{"PK":5978923,"NOMBRE":"Jard\u00edn del Bulevar de Pe\u00f1a Gorbea","TRANSPORTE":"Metro: Puente Vallecas (l\u00ednea 1) Bus: 10, 24, 54, 57, 58, 310 y 410  Servicio Bicimad, para consultar la estaci\u00f3n m\u00e1s cercana, acceda al mapa de geolocalizaci\u00f3n de las estaciones.","CLASE-VIA":"CALLE","NOMBRE-VIA":"PE\u00d1A GORBEA","NUM":17.0,"BARRIO":"SAN DIEGO","DISTRITO":"PUENTE DE VALLECAS","COORDENADA-X":443393.0,"COORDENADA-Y":4471901.0,"LATITUD":40.3957812018,"LONGITUD":-3.6670346725},{"PK":5964328,"NOMBRE":"Jard\u00edn del Maestro Padilla","TRANSPORTE":"Bus: 25, 33, 39, 41, 68, 69, 138  Servicio Bicimad, para consultar la estaci\u00f3n m\u00e1s cercana, acceda al mapa de geolocalizaci\u00f3n de las estaciones.","CLASE-VIA":"CALLE","NOMBRE-VIA":"SAN ALEJANDRO","NUM":1.0,"BARRIO":"IMPERIAL","DISTRITO":"ARGANZUELA","COORDENADA-X":438793.0,"COORDENADA-Y":4472904.0,"LATITUD":40.4044913234,"LONGITUD":-3.721330824},{"PK":5981891,"NOMBRE":"Jard\u00edn del Templo de Debod","TRANSPORTE":"Metro: Plaza de Espa\u00f1a (l\u00edneas 3 y 10), Ventura Rodr\u00edguez (l\u00ednea 3) Bus: 25, 33, 39, 46, 74, 75, 148  Servicio Bicimad, para consultar la estaci\u00f3n m\u00e1s cercana, acceda al mapa de geolocalizaci\u00f3n de las estaciones.","CLASE-VIA":"CALLE","NOMBRE-VIA":"FERRAZ","NUM":1.0,"BARRIO":"CASA DE CAMPO","DISTRITO":"MONCLOA-ARAVACA","COORDENADA-X":439218.0,"COORDENADA-Y":4475093.0,"LATITUD":40.4242509655,"LONGITUD":-3.7165318555},{"PK":5997538,"NOMBRE":"Jard\u00edn del paseo Federico Garc\u00eda Lorca","TRANSPORTE":"Metro: Villa Vallecas (l\u00ednea 1) Bus: 54 , 58 , 103 , 142 , 143 , N9 , L1  Servicio Bicimad, para consultar la estaci\u00f3n m\u00e1s cercana, acceda al mapa de geolocalizaci\u00f3n de las estaciones.","CLASE-VIA":"PASEO","NOMBRE-VIA":"FEDERICO GARCIA LORCA","NUM":21.0,"BARRIO":"CASCO H.VALLECAS","DISTRITO":"VILLA DE VALLECAS","COORDENADA-X":447315.0,"COORDENADA-Y":4469832.0,"LATITUD":40.377408685,"LONGITUD":-3.6206400362},{"PK":5981149,"NOMBRE":"Jard\u00edn el Torero","TRANSPORTE":"Bus: 23 , 55 , 60  Servicio Bicimad, para consultar la estaci\u00f3n m\u00e1s cercana, acceda al mapa de geolocalizaci\u00f3n de las estaciones.","CLASE-VIA":"CALLE","NOMBRE-VIA":"TORERO","NUM":6.0,"BARRIO":"MOSCARDO","DISTRITO":"USERA","COORDENADA-X":440113.0,"COORDENADA-Y":4471526.0,"LATITUD":40.3921826915,"LONGITUD":-3.7056345651},{"PK":5986859,"NOMBRE":"Jard\u00edn hist\u00f3rico El Capricho de la Alameda Osuna","TRANSPORTE":"Metro: El Capricho (linea 5) Autob\u00fas: 101, 105 y 151  Servicio Bicimad, para consultar la estaci\u00f3n m\u00e1s cercana, acceda al mapa de geolocalizaci\u00f3n de las estaciones.","CLASE-VIA":"PASEO","NOMBRE-VIA":"ALAMEDA DE OSUNA","NUM":25.0,"BARRIO":"ALAMEDA DE OSUNA","DISTRITO":"BARAJAS","COORDENADA-X":449118.0,"COORDENADA-Y":4478373.0,"LATITUD":40.4544636151,"LONGITUD":-3.600096436},{"PK":6004296,"NOMBRE":"Palacio de Cristal de la Arganzuela: Invernadero","TRANSPORTE":"Metro: Legazpi (L\u00ednea 3 y l\u00ednea 6) Bus: 6, 18, 19, 45, 47, 59, 62, 76, 78, 86, 148, 247  Servicio Bicimad, para consultar la estaci\u00f3n m\u00e1s cercana, acceda al mapa de geolocalizaci\u00f3n de las estaciones.","CLASE-VIA":"PASEO","NOMBRE-VIA":"CHOPERA","NUM":10.0,"BARRIO":"CHOPERA","DISTRITO":"ARGANZUELA","COORDENADA-X":440714.0,"COORDENADA-Y":4471656.0,"LATITUD":40.3933877847,"LONGITUD":-3.6985656327},{"PK":5966148,"NOMBRE":"Parque Agust\u00edn Rodr\u00edguez Sahag\u00fan","TRANSPORTE":"Bus: 49 , 126 , 128  Servicio Bicimad, para consultar la estaci\u00f3n m\u00e1s cercana, acceda al mapa de geolocalizaci\u00f3n de las estaciones.","CLASE-VIA":"PASEO","NOMBRE-VIA":"DIRECCION","NUM":301.0,"BARRIO":"VALDEACEDERAS","DISTRITO":"TETUAN","COORDENADA-X":440331.0,"COORDENADA-Y":4480188.0,"LATITUD":40.4702295243,"LONGITUD":-3.7038792454},{"PK":6457128,"NOMBRE":"Parque Alcalde Jes\u00fas P\u00e9rez Quijano","TRANSPORTE":"Metro: Valdebernardo (l\u00ednea 9) Bus: 20  Servicio Bicimad, para consultar la estaci\u00f3n m\u00e1s cercana, acceda al mapa de geolocalizaci\u00f3n de las estaciones.","CLASE-VIA":"CALLE","NOMBRE-VIA":"LADERA DE LOS ALMENDROS","NUM":0.0,"BARRIO":"CASCO H.VICALVARO","DISTRITO":"VICALVARO","COORDENADA-X":447145.0,"COORDENADA-Y":4472806.0,"LATITUD":40.4041896106,"LONGITUD":-3.6229011449},{"PK":10289409,"NOMBRE":"Parque Alfredo Kraus","TRANSPORTE":"Metro: 'Mar de Cristal', l\u00edneas 4 y 8 Autobuses: 87, 120, 125 y 172  Servicio Bicimad, para consultar la estaci\u00f3n m\u00e1s cercana, acceda al mapa de geolocalizaci\u00f3n de las estaciones.","CLASE-VIA":"CALLE","NOMBRE-VIA":"MAR ADRIATICO","NUM":5.0,"BARRIO":"PINAR DEL REY","DISTRITO":"HORTALEZA","COORDENADA-X":445804.0,"COORDENADA-Y":4480230.0,"LATITUD":40.4709830004,"LONGITUD":-3.6393251567},{"PK":5993604,"NOMBRE":"Parque Almansa","TRANSPORTE":"Metro: 'Cuatro Caminos', l\u00edneas 1, 2 y 6 Autobuses: 45  Servicio Bicimad, para consultar la estaci\u00f3n m\u00e1s cercana, acceda al mapa de geolocalizaci\u00f3n de las estaciones.","CLASE-VIA":"CALLE","NOMBRE-VIA":"ALMANSA","NUM":97.0,"BARRIO":"CIUDAD UNIVERSITARIA","DISTRITO":"MONCLOA-ARAVACA","COORDENADA-X":439510.0,"COORDENADA-Y":4477867.0,"LATITUD":40.4492526727,"LONGITUD":-3.7133420889},{"PK":5984172,"NOMBRE":"Parque Aluche","TRANSPORTE":"Metro: Aluche (linea 5) Bus: 25, 121, 131 y 138 RENFE: Aluche","CLASE-VIA":"CALLE","NOMBRE-VIA":"TEMBLEQUE","NUM":45.0,"BARRIO":"ALUCHE","DISTRITO":"LATINA","COORDENADA-X":435562.0,"COORDENADA-Y":4471802.0,"LATITUD":40.3943203594,"LONGITUD":-3.7592814566},{"PK":5986186,"NOMBRE":"Parque Aluche - Poblados","TRANSPORTE":"Metro: Aluche (linea 5) Bus: 17, 117, 139 Renfe: Aluche  Servicio Bicimad, para consultar la estaci\u00f3n m\u00e1s cercana, acceda al mapa de geolocalizaci\u00f3n de las estaciones.","CLASE-VIA":"CALLE","NOMBRE-VIA":"GUARE\u00d1A","NUM":22.0,"BARRIO":"LAS AGUILAS","DISTRITO":"LATINA","COORDENADA-X":435053.0,"COORDENADA-Y":4470820.0,"LATITUD":40.3854345075,"LONGITUD":-3.7651902156},{"PK":5981072,"NOMBRE":"Parque Alzola","TRANSPORTE":"Bus: 60 , 131  Servicio Bicimad, para consultar la estaci\u00f3n m\u00e1s cercana, acceda al mapa de geolocalizaci\u00f3n de las estaciones.","CLASE-VIA":"CALLE","NOMBRE-VIA":"BEASAIN","NUM":2.0,"BARRIO":"ORCASITAS","DISTRITO":"USERA","COORDENADA-X":439410.0,"COORDENADA-Y":4468756.0,"LATITUD":40.3671691969,"LONGITUD":-3.7136655627},{"PK":5994520,"NOMBRE":"Parque Antonio Pirala","TRANSPORTE":"Metro: Carmen, Ventas (linea 5 y linea 2) Bus: 38, 106, 110, 146, 210  Servicio Bicimad, para consultar la estaci\u00f3n m\u00e1s cercana, acceda al mapa de geolocalizaci\u00f3n de las estaciones.","CLASE-VIA":"CALLE","NOMBRE-VIA":"ANTONIO PIRALA","NUM":8.0,"BARRIO":"VENTAS","DISTRITO":"CIUDAD LINEAL","COORDENADA-X":444047.0,"COORDENADA-Y":4475544.0,"LATITUD":40.4286525956,"LONGITUD":-3.6596492923},{"PK":5962985,"NOMBRE":"Parque Anunciaci\u00f3n","TRANSPORTE":"Bus: 20, 26, 63.  Servicio Bicimad, para consultar la estaci\u00f3n m\u00e1s cercana, acceda al mapa de geolocalizaci\u00f3n de las estaciones.","CLASE-VIA":"CALLE","NOMBRE-VIA":"ANUNCIACION","NUM":1.0,"BARRIO":"NI\u00d1O JESUS","DISTRITO":"RETIRO","COORDENADA-X":442659.0,"COORDENADA-Y":4473699.0,"LATITUD":40.41192842,"LONGITUD":-3.6758333171},{"PK":5985636,"NOMBRE":"Parque Arquitecto Antonio Palacios","TRANSPORTE":"Metro: Torre Arias (l\u00ednea 5) Bus: 28, 48  Servicio Bicimad, para consultar la estaci\u00f3n m\u00e1s cercana, acceda al mapa de geolocalizaci\u00f3n de las estaciones.","CLASE-VIA":"CALLE","NOMBRE-VIA":"FENELON","NUM":17.0,"BARRIO":"CANILLEJAS","DISTRITO":"SAN BLAS-CANILLEJAS","COORDENADA-X":448372.0,"COORDENADA-Y":4476604.0,"LATITUD":40.4384723926,"LONGITUD":-3.6087501533},{"PK":5979932,"NOMBRE":"Parque Arroyo Fontarr\u00f3n","TRANSPORTE":"Bus: 8, 20, 30, 100  Servicio Bicimad, para consultar la estaci\u00f3n m\u00e1s cercana, acceda al mapa de geolocalizaci\u00f3n de las estaciones.","CLASE-VIA":"CALLE","NOMBRE-VIA":"ARROYO FONTARRON","NUM":22.0,"BARRIO":"PAVONES","DISTRITO":"MORATALAZ","COORDENADA-X":446012.0,"COORDENADA-Y":4471768.0,"LATITUD":40.3947659611,"LONGITUD":-3.6361646052},{"PK":5993155,"NOMBRE":"Parque Arroyo Fresno","TRANSPORTE":"Bus: 49  Servicio Bicimad, para consultar la estaci\u00f3n m\u00e1s cercana, acceda al mapa de geolocalizaci\u00f3n de las estaciones.","CLASE-VIA":"AVENIDA","NOMBRE-VIA":"VENTISQUERO DE LA CONDESA","NUM":43.0,"BARRIO":"MIRASIERRA","DISTRITO":"FUENCARRAL-EL PARDO","COORDENADA-X":439248.0,"COORDENADA-Y":4482708.0,"LATITUD":40.4928429696,"LONGITUD":-3.716906972},{"PK":10703881,"NOMBRE":"Parque Arroyo Pozuelo","TRANSPORTE":"Transporte m\u00e1s pr\u00f3ximo:  Autob\u00fas: 160  Otros trasportes cercanos:  Autob\u00fas: 161 Autob\u00fas interurbano: 658 Tren: Estaci\u00f3n de Aravaca (L\u00edneas C-7 y C-10) Metro-ligero\/Tranv\u00eda: Estaci\u00f3n de Aravaca (L\u00ednea 2)  Servicio Bicimad, para consultar la estaci\u00f3n m\u00e1s cercana, acceda al mapa de geolocalizaci\u00f3n de las estaciones.","CLASE-VIA":"Calle","NOMBRE-VIA":"Arroyo Pozuelo","NUM":"No disponible","BARRIO":"No disponible","DISTRITO":"MONCLOA-ARAVACA","COORDENADA-X":433385.0,"COORDENADA-Y":4478502.0,"LATITUD":40.4545142934,"LONGITUD":-3.7856220496},{"PK":5992721,"NOMBRE":"Parque Arroyo de los Pinos","TRANSPORTE":"Metro: Antonio Machado (linea 7) Bus: 132  Servicio Bicimad, para consultar la estaci\u00f3n m\u00e1s cercana, acceda al mapa de geolocalizaci\u00f3n de las estaciones.","CLASE-VIA":"CALLE","NOMBRE-VIA":"JOAQUIN LORENZO","NUM":21.0,"BARRIO":"PE\u00d1A GRANDE","DISTRITO":"FUENCARRAL-EL PARDO","COORDENADA-X":438613.0,"COORDENADA-Y":4480559.0,"LATITUD":40.4734373517,"LONGITUD":-3.724191544},{"PK":5982306,"NOMBRE":"Parque Avenida de Portugal","TRANSPORTE":"Bus: 25, 33, 31, 36, 39, 65, 138  Servicio Bicimad, para consultar la estaci\u00f3n m\u00e1s cercana, acceda al mapa de geolocalizaci\u00f3n de las estaciones.","CLASE-VIA":"AUTOVIA","NOMBRE-VIA":"A-5","NUM":300.0,"BARRIO":"PUERTA DEL ANGEL","DISTRITO":"LATINA","COORDENADA-X":437583.0,"COORDENADA-Y":4473763.0,"LATITUD":40.412148807,"LONGITUD":-3.7356620312},{"PK":5977882,"NOMBRE":"Parque Azor\u00edn","TRANSPORTE":"Metro: Buenos Aires (l\u00ednea 1) Bus: 10, 54, 58, 103, 136  Servicio Bicimad, para consultar la estaci\u00f3n m\u00e1s cercana, acceda al mapa de geolocalizaci\u00f3n de las estaciones.","CLASE-VIA":"AVENIDA","NOMBRE-VIA":"ALBUFERA","NUM":142.0,"BARRIO":"PALOMERAS BAJAS","DISTRITO":"PUENTE DE VALLECAS","COORDENADA-X":444449.0,"COORDENADA-Y":4471411.0,"LATITUD":40.3914471713,"LONGITUD":-3.6545377411},{"PK":5983153,"NOMBRE":"Parque Barrio Las Musas","TRANSPORTE":"Metro: Las Musas (linea 7) Bus: 38, 140   Servicio Bicimad, para consultar la estaci\u00f3n m\u00e1s cercana, acceda al mapa de geolocalizaci\u00f3n de las estaciones.","CLASE-VIA":"AVENIDA","NOMBRE-VIA":"NIZA","NUM":55.0,"BARRIO":"ROSAS","DISTRITO":"SAN BLAS-CANILLEJAS","COORDENADA-X":448462.0,"COORDENADA-Y":4475856.0,"LATITUD":40.4317395307,"LONGITUD":-3.6076283699},{"PK":6064773,"NOMBRE":"Parque Bego\u00f1a","TRANSPORTE":"Bus: 125 y 135 RENFE: Ram\u00f3n y Cajal  Servicio Bicimad, para consultar la estaci\u00f3n m\u00e1s cercana, acceda al mapa de geolocalizaci\u00f3n de las estaciones.","CLASE-VIA":"CALLE","NOMBRE-VIA":"SAN MODESTO","NUM":1.0,"BARRIO":"VALVERDE","DISTRITO":"FUENCARRAL-EL PARDO","COORDENADA-X":441756.0,"COORDENADA-Y":4481696.0,"LATITUD":40.483906267,"LONGITUD":-3.6872207462},{"PK":5991086,"NOMBRE":"Parque Biosaludable","TRANSPORTE":"Metro: El Capricho (l\u00ednea 5) Bus: 101, 114, 115 y 151  Servicio Bicimad, para consultar la estaci\u00f3n m\u00e1s cercana, acceda al mapa de geolocalizaci\u00f3n de las estaciones.","CLASE-VIA":"PASEO","NOMBRE-VIA":"ALAMEDA DE OSUNA","NUM":8.0,"BARRIO":"ALAMEDA DE OSUNA","DISTRITO":"BARAJAS","COORDENADA-X":448815.0,"COORDENADA-Y":4478108.0,"LATITUD":40.4520577318,"LONGITUD":-3.6036483614},{"PK":5977653,"NOMBRE":"Parque Campo de la Paloma","TRANSPORTE":"No disponible","CLASE-VIA":"AVENIDA","NOMBRE-VIA":"RAFAEL ALBERTI","NUM":38.0,"BARRIO":"PALOMERAS SURESTE","DISTRITO":"PUENTE DE VALLECAS","COORDENADA-X":445358.0,"COORDENADA-Y":4470511.0,"LATITUD":40.3833994671,"LONGITUD":-3.6437625434},{"PK":5984392,"NOMBRE":"Parque Caramuel","TRANSPORTE":"Bus: 138  Servicio Bicimad, para consultar la estaci\u00f3n m\u00e1s cercana, acceda al mapa de geolocalizaci\u00f3n de las estaciones.","CLASE-VIA":"CALLE","NOMBRE-VIA":"CARAMUEL","NUM":53.0,"BARRIO":"PUERTA DEL ANGEL","DISTRITO":"LATINA","COORDENADA-X":438111.0,"COORDENADA-Y":4473317.0,"LATITUD":40.4081704733,"LONGITUD":-3.7293959946},{"PK":5982718,"NOMBRE":"Parque Cerro Almod\u00f3var","TRANSPORTE":"Bus: 25, 31 y 138  Servicio Bicimad, para consultar la estaci\u00f3n m\u00e1s cercana, acceda al mapa de geolocalizaci\u00f3n de las estaciones.","CLASE-VIA":"CALLE","NOMBRE-VIA":"MARCELINO CASTILLO","NUM":29.0,"BARRIO":"ALUCHE","DISTRITO":"LATINA","COORDENADA-X":436799.0,"COORDENADA-Y":4471748.0,"LATITUD":40.3939286144,"LONGITUD":-3.744713324},{"PK":5995330,"NOMBRE":"Parque Cerro Pe\u00f1abel","TRANSPORTE":"Bus: 42, 132 y 137  Servicio Bicimad, para consultar la estaci\u00f3n m\u00e1s cercana, acceda al mapa de geolocalizaci\u00f3n de las estaciones.","CLASE-VIA":"CALLE","NOMBRE-VIA":"CANDIDO MATEOS","NUM":12.0,"BARRIO":"PE\u00d1A GRANDE","DISTRITO":"FUENCARRAL-EL PARDO","COORDENADA-X":439123.0,"COORDENADA-Y":4480624.0,"LATITUD":40.4740604329,"LONGITUD":-3.7181817856},{"PK":5978133,"NOMBRE":"Parque Cerro del T\u00edo P\u00edo","TRANSPORTE":"Bus: 54, 141 y 143  Servicio Bicimad, para consultar la estaci\u00f3n m\u00e1s cercana, acceda al mapa de geolocalizaci\u00f3n de las estaciones.","CLASE-VIA":"CALLE","NOMBRE-VIA":"BENJAMIN PALENCIA","NUM":2.0,"BARRIO":"NUMANCIA","DISTRITO":"PUENTE DE VALLECAS","COORDENADA-X":444395.0,"COORDENADA-Y":4472030.0,"LATITUD":40.3970198232,"LONGITUD":-3.6552397978},{"PK":5991635,"NOMBRE":"Parque Cerro \u00c1guila","TRANSPORTE":"Bus: 160  Servicio Bicimad, para consultar la estaci\u00f3n m\u00e1s cercana, acceda al mapa de geolocalizaci\u00f3n de las estaciones.","CLASE-VIA":"CAMINO","NOMBRE-VIA":"CERRO DEL AGUILA","NUM":1.0,"BARRIO":"ARAVACA","DISTRITO":"MONCLOA-ARAVACA","COORDENADA-X":435408.0,"COORDENADA-Y":4478196.0,"LATITUD":40.4519077119,"LONGITUD":-3.7617571872},{"PK":5979417,"NOMBRE":"Parque Ciudad de los \u00c1ngeles","TRANSPORTE":"Metro: Villaverde Bajo Cruce (linea 3) Bus: 18, 126 y 86  Servicio Bicimad, para consultar la estaci\u00f3n m\u00e1s cercana, acceda al mapa de geolocalizaci\u00f3n de las estaciones.","CLASE-VIA":"CALLE","NOMBRE-VIA":"ANOETA","NUM":14.0,"BARRIO":"LOS ANGELES","DISTRITO":"VILLAVERDE","COORDENADA-X":440865.0,"COORDENADA-Y":4467155.0,"LATITUD":40.3528509499,"LONGITUD":-3.6963807727},{"PK":5991699,"NOMBRE":"Parque Cuesta del Galb\u00e1n","TRANSPORTE":"Bus: 160  Servicio Bicimad, para consultar la estaci\u00f3n m\u00e1s cercana, acceda al mapa de geolocalizaci\u00f3n de las estaciones.","CLASE-VIA":"CUESTA","NOMBRE-VIA":"GALBAN","NUM":2.0,"BARRIO":"ARAVACA","DISTRITO":"MONCLOA-ARAVACA","COORDENADA-X":434871.0,"COORDENADA-Y":4478011.0,"LATITUD":40.4501992744,"LONGITUD":-3.7680706148},{"PK":6457169,"NOMBRE":"Parque Cu\u00f1a Verde de Vic\u00e1lvaro. Zona A","TRANSPORTE":"Metro: Vic\u00e1lvaro (linea 9) Bus: E3  Servicio Bicimad, para consultar la estaci\u00f3n m\u00e1s cercana, acceda al mapa de geolocalizaci\u00f3n de las estaciones.","CLASE-VIA":"AVENIDA","NOMBRE-VIA":"DAROCA","NUM":300.0,"BARRIO":"AMBROZ","DISTRITO":"VICALVARO","COORDENADA-X":447563.0,"COORDENADA-Y":4473414.0,"LATITUD":40.4096932969,"LONGITUD":-3.6180254398},{"PK":5984224,"NOMBRE":"Parque Cu\u00f1a Verde de Vic\u00e1lvaro. Zona B","TRANSPORTE":"Metro: San Cipriano (linea 9) Bus: 4 , E3, 100  Servicio Bicimad, para consultar la estaci\u00f3n m\u00e1s cercana, acceda al mapa de geolocalizaci\u00f3n de las estaciones.","CLASE-VIA":"AVENIDA","NOMBRE-VIA":"DAROCA","NUM":299.0,"BARRIO":"AMBROZ","DISTRITO":"VICALVARO","COORDENADA-X":447659.0,"COORDENADA-Y":4473371.0,"LATITUD":40.4093029587,"LONGITUD":-3.6168904429},{"PK":6457255,"NOMBRE":"Parque Cu\u00f1a Verde de Vic\u00e1lvaro. Zona C","TRANSPORTE":"Metro: Avenida de Guadalajara (l\u00ednea 2) Bus: E2  Servicio Bicimad, para consultar la estaci\u00f3n m\u00e1s cercana, acceda al mapa de geolocalizaci\u00f3n de las estaciones.","CLASE-VIA":"AVENIDA","NOMBRE-VIA":"CANILLEJAS A VICALVARO","NUM":102.0,"BARRIO":"CASCO H.VICALVARO","DISTRITO":"VICALVARO","COORDENADA-X":448175.0,"COORDENADA-Y":4474190.0,"LATITUD":40.4167270669,"LONGITUD":-3.6108530618},{"PK":5982087,"NOMBRE":"Parque Dehesa de la Villa","TRANSPORTE":"Metro: Francos Rodriguez y Valdezarza (l\u00ednea 7). Autob\u00fas: 44, 64, 82, 126, 127 y 132  Servicio Bicimad, para consultar la estaci\u00f3n m\u00e1s cercana, acceda al mapa de geolocalizaci\u00f3n de las estaciones.","CLASE-VIA":"CARRETERA","NOMBRE-VIA":"DEHESA DE LA VILLA","NUM":1.0,"BARRIO":"CIUDAD UNIVERSITARIA","DISTRITO":"MONCLOA-ARAVACA","COORDENADA-X":438892.0,"COORDENADA-Y":4478863.0,"LATITUD":40.458179819,"LONGITUD":-3.7207253118},{"PK":5987289,"NOMBRE":"Parque Duque de Ahumada","TRANSPORTE":"Metro: San Cipriano (l\u00ednea 9)  Bus: 4 , 106  Servicio Bicimad, para consultar la estaci\u00f3n m\u00e1s cercana, acceda al mapa de geolocalizaci\u00f3n de las estaciones.","CLASE-VIA":"CALLE","NOMBRE-VIA":"LAGO VAN","NUM":16.0,"BARRIO":"CASCO H.VICALVARO","DISTRITO":"VICALVARO","COORDENADA-X":448560.0,"COORDENADA-Y":4472870.0,"LATITUD":40.4048457851,"LONGITUD":-3.6062315414},{"PK":5994901,"NOMBRE":"Parque El Calero","TRANSPORTE":"Metro: Quintana y Carmen (l\u00ednea 5) Bus: 21, 48 y 146  Servicio Bicimad, para consultar la estaci\u00f3n m\u00e1s cercana, acceda al mapa de geolocalizaci\u00f3n de las estaciones.","CLASE-VIA":"CALLE","NOMBRE-VIA":"JOSE DEL HIERRO","NUM":1.0,"BARRIO":"CONCEPCION","DISTRITO":"CIUDAD LINEAL","COORDENADA-X":444707.0,"COORDENADA-Y":4476306.0,"LATITUD":40.4355522295,"LONGITUD":-3.6519351471},{"PK":5995399,"NOMBRE":"Parque El Cedral","TRANSPORTE":"Bus: 7, 9, 70, 72 y 87  Servicio Bicimad, para consultar la estaci\u00f3n m\u00e1s cercana, acceda al mapa de geolocalizaci\u00f3n de las estaciones.","CLASE-VIA":"CALLE","NOMBRE-VIA":"ARTURO SORIA","NUM":233.0,"BARRIO":"ATALAYA","DISTRITO":"CIUDAD LINEAL","COORDENADA-X":443618.0,"COORDENADA-Y":4479348.0,"LATITUD":40.4628829514,"LONGITUD":-3.6650441005},{"PK":5981476,"NOMBRE":"Parque El Cruce","TRANSPORTE":"Metro: Villaverde Bajo - Cruce (l\u00ednea 3) Autob\u00fas: 18, 22, 86, 116 y 130  Servicio Bicimad, para consultar la estaci\u00f3n m\u00e1s cercana, acceda al mapa de geolocalizaci\u00f3n de las estaciones.","CLASE-VIA":"CALLE","NOMBRE-VIA":"ALCOCER","NUM":1.0,"BARRIO":"LOS ANGELES","DISTRITO":"VILLAVERDE","COORDENADA-X":441024.0,"COORDENADA-Y":4466944.0,"LATITUD":40.3509704037,"LONGITUD":-3.6944891243},{"PK":6012426,"NOMBRE":"Parque Emir Mohamed I","TRANSPORTE":"Bus: 3, 31 , 41 , 50 , 65  Servicio Bicimad, para consultar la estaci\u00f3n m\u00e1s cercana, acceda al mapa de geolocalizaci\u00f3n de las estaciones.","CLASE-VIA":"CUESTA","NOMBRE-VIA":"RAMON","NUM":1.0,"BARRIO":"PALACIO","DISTRITO":"CENTRO","COORDENADA-X":439357.0,"COORDENADA-Y":4473997.0,"LATITUD":40.4143878523,"LONGITUD":-3.7147888897},{"PK":5991419,"NOMBRE":"Parque Emperatriz Mar\u00eda de Austria","TRANSPORTE":"Bus: 47 , 81 , 108 , 116 , 121 , 131 , 155 Metro: Plaza El\u00edptica (l\u00ednea 6 y 11) , Abrantes (l\u00ednea 11)  Servicio Bicimad, para consultar la estaci\u00f3n m\u00e1s cercana, acceda al mapa de geolocalizaci\u00f3n de las estaciones.","CLASE-VIA":"CALLE","NOMBRE-VIA":"VIA LUSITANA","NUM":3.0,"BARRIO":"ABRANTES","DISTRITO":"CARABANCHEL","COORDENADA-X":438652.0,"COORDENADA-Y":4470443.0,"LATITUD":40.3823111003,"LONGITUD":-3.7227552919},{"PK":5965783,"NOMBRE":"Parque Enrique Tierno Galv\u00e1n","TRANSPORTE":"Bus: 148  Servicio Bicimad, para consultar la estaci\u00f3n m\u00e1s cercana, acceda al mapa de geolocalizaci\u00f3n de las estaciones.","CLASE-VIA":"CALLE","NOMBRE-VIA":"MENESES","NUM":4.0,"BARRIO":"LEGAZPI","DISTRITO":"ARGANZUELA","COORDENADA-X":442152.0,"COORDENADA-Y":4471501.0,"LATITUD":40.3921015145,"LONGITUD":-3.6816206547},{"PK":5979033,"NOMBRE":"Parque Entrev\u00edas Forestal","TRANSPORTE":"Bus: 88  Servicio Bicimad, para consultar la estaci\u00f3n m\u00e1s cercana, acceda al mapa de geolocalizaci\u00f3n de las estaciones.","CLASE-VIA":"CALLE","NOMBRE-VIA":"EMBAJADORES","NUM":251.0,"BARRIO":"ENTREVIAS","DISTRITO":"PUENTE DE VALLECAS","COORDENADA-X":443371.0,"COORDENADA-Y":4468797.0,"LATITUD":40.3678260361,"LONGITUD":-3.6670181171},{"PK":5978478,"NOMBRE":"Parque Entrev\u00edas Urbano","TRANSPORTE":"Bus: 102, 111 Renfe: Asamblea de Madrid, Entrev\u00edas  Servicio Bicimad, para consultar la estaci\u00f3n m\u00e1s cercana, acceda al mapa de geolocalizaci\u00f3n de las estaciones.","CLASE-VIA":"RONDA","NOMBRE-VIA":"SUR","NUM":8.0,"BARRIO":"ENTREVIAS","DISTRITO":"PUENTE DE VALLECAS","COORDENADA-X":443138.0,"COORDENADA-Y":4469322.0,"LATITUD":40.3725396951,"LONGITUD":-3.6698091602},{"PK":5986948,"NOMBRE":"Parque Este de Valdebernardo","TRANSPORTE":"Metro: Valdebernardo (l\u00ednea 9) Bus: 71  Servicio Bicimad, para consultar la estaci\u00f3n m\u00e1s cercana, acceda al mapa de geolocalizaci\u00f3n de las estaciones.","CLASE-VIA":"AVENIDA","NOMBRE-VIA":"DEMOCRACIA","NUM":25.0,"BARRIO":"CASCO H.VICALVARO","DISTRITO":"VICALVARO","COORDENADA-X":447520.0,"COORDENADA-Y":4471609.0,"LATITUD":40.3934299735,"LONGITUD":-3.6183833916},{"PK":5991581,"NOMBRE":"Parque Eugenia de Montijo","TRANSPORTE":"Metro: Eugenia de Montijo (l\u00ednea 5) Bus: 17 , 35 , 121 , 131 , 139  Servicio Bicimad, para consultar la estaci\u00f3n m\u00e1s cercana, acceda al mapa de geolocalizaci\u00f3n de las estaciones.","CLASE-VIA":"CALLE","NOMBRE-VIA":"PARQUE EUGENIA DE MONTIJO","NUM":3.0,"BARRIO":"VISTA ALEGRE","DISTRITO":"CARABANCHEL","COORDENADA-X":436105.0,"COORDENADA-Y":4470144.0,"LATITUD":40.3794262333,"LONGITUD":-3.7527174454},{"PK":6009920,"NOMBRE":"Parque Eva Duarte","TRANSPORTE":"Metro: Manuel Becerra (l\u00ednea 2 y 6) Bus: 12, 43, 56, 143, 156   Servicio Bicimad, para consultar la estaci\u00f3n m\u00e1s cercana, acceda al mapa de geolocalizaci\u00f3n de las estaciones.","CLASE-VIA":"CALLE","NOMBRE-VIA":"DOCTOR GOMEZ ULLA","NUM":9.0,"BARRIO":"GUINDALERA","DISTRITO":"SALAMANCA","COORDENADA-X":443337.0,"COORDENADA-Y":4475684.0,"LATITUD":40.42985672,"LONGITUD":-3.6680314325},{"PK":10554813,"NOMBRE":"Parque Forestal Fuente Carrantona","TRANSPORTE":"Autobuses: E2, E4, 30, 100, 140 Metro: Alsacia (L2)  Servicio Bicimad, para consultar la estaci\u00f3n m\u00e1s cercana, acceda al mapa de geolocalizaci\u00f3n de las estaciones.","CLASE-VIA":"CALLE","NOMBRE-VIA":"FUENTE CARRANTONA","NUM":38.0,"BARRIO":"HORCAJO","DISTRITO":"MORATALAZ","COORDENADA-X":446570.0,"COORDENADA-Y":4473464.0,"LATITUD":40.410083041,"LONGITUD":-3.6297141828},{"PK":10706071,"NOMBRE":"Parque Forestal Julio Alguacil G\u00f3mez","TRANSPORTE":"Acceso en coche:  Desde M-40 por salida 24, direcci\u00f3n Ctra Carabanchel a Villaverde. Desde Avenida de los Poblados, a calle Rafaela Ibarra, continuaci\u00f3n hasta Ctra Carabanchel a Villaverde Desde Calle Alcocer, Calle Villalonso o Av Real de Pinto, hasta intersecci\u00f3n con Ctra Carabanchel a Villaverde    Acceso en transporte p\u00fablico:  autob\u00fas MT 131   Servicio Bicimad, para consultar la estaci\u00f3n m\u00e1s cercana, acceda al mapa de geolocalizaci\u00f3n de las estaciones.","CLASE-VIA":"PARQUE","NOMBRE-VIA":"Ctra Carabanchel a Villaverde  con vuelta Calle Verde Viento","NUM":"No disponible","BARRIO":"No disponible","DISTRITO":"DISTRITO","COORDENADA-X":439059.0,"COORDENADA-Y":4468043.0,"LATITUD":40.3607354096,"LONGITUD":-3.7177186736},{"PK":7923966,"NOMBRE":"Parque Forestal de Valdebebas-Felipe VI","TRANSPORTE":"Bus: 174 y SE  799.  Servicio Bicimad, para consultar la estaci\u00f3n m\u00e1s cercana, acceda al mapa de geolocalizaci\u00f3n de las estaciones.","CLASE-VIA":"AVENIDA","NOMBRE-VIA":"LAS FUERZAS ARMADAS","NUM":11.0,"BARRIO":"VALDEFUENTES","DISTRITO":"HORTALEZA","COORDENADA-X":445636.0,"COORDENADA-Y":4481782.0,"LATITUD":40.484944126,"LONGITUD":-3.6414516217},{"PK":6451513,"NOMBRE":"Parque Forestal de Vic\u00e1lvaro","TRANSPORTE":"Metro: San Cipriano, Puerta de Arganda (linea 9) Bus: E3 Renfe: Vic\u00e1lvaro  Servicio Bicimad, para consultar la estaci\u00f3n m\u00e1s cercana, acceda al mapa de geolocalizaci\u00f3n de las estaciones.","CLASE-VIA":"PASEO","NOMBRE-VIA":"POLIDEPORTIVO","NUM":1.0,"BARRIO":"AMBROZ","DISTRITO":"VICALVARO","COORDENADA-X":448560.0,"COORDENADA-Y":4473466.0,"LATITUD":40.4102240177,"LONGITUD":-3.6062680142},{"PK":5968930,"NOMBRE":"Parque F\u00e9lix Rodr\u00edguez de la Fuente","TRANSPORTE":"Metro: Avenida la Paz (l\u00ednea 4) Bus: 9 , 72 , 73 , 120  Servicio Bicimad, para consultar la estaci\u00f3n m\u00e1s cercana, acceda al mapa de geolocalizaci\u00f3n de las estaciones.","CLASE-VIA":"CALLE","NOMBRE-VIA":"PADRE CLARET","NUM":38.0,"BARRIO":"PROSPERIDAD","DISTRITO":"CHAMARTIN","COORDENADA-X":443583.0,"COORDENADA-Y":4478145.0,"LATITUD":40.4520523827,"LONGITUD":-3.6653500733},{"PK":5982998,"NOMBRE":"Parque General Fanjul - Santa Margarita","TRANSPORTE":"Bus: 17, 34, 39, 117, 139 Renfe: Las \u00c1guilas  Servicio Bicimad, para consultar la estaci\u00f3n m\u00e1s cercana, acceda al mapa de geolocalizaci\u00f3n de las estaciones.","CLASE-VIA":"AVENIDA","NOMBRE-VIA":"DE LAS \u00c1GUILAS","NUM":144.0,"BARRIO":"LAS AGUILAS","DISTRITO":"LATINA","COORDENADA-X":433494.0,"COORDENADA-Y":4470268.0,"LATITUD":40.3803389006,"LONGITUD":-3.7834984766},{"PK":6004533,"NOMBRE":"Parque Hortaleza","TRANSPORTE":"Bus: 7 , 9 , 29 , 72 , 87 , 107 , 129 , 172 , 172SF  Servicio Bicimad, para consultar la estaci\u00f3n m\u00e1s cercana, acceda al mapa de geolocalizaci\u00f3n de las estaciones.","CLASE-VIA":"CARRETERA","NOMBRE-VIA":"ESTACION DE HORTALEZA","NUM":18.0,"BARRIO":"PINAR DEL REY","DISTRITO":"HORTALEZA","COORDENADA-X":444838.0,"COORDENADA-Y":4481265.0,"LATITUD":40.480243185,"LONGITUD":-3.6508099422},{"PK":5981830,"NOMBRE":"Parque Huerta del Obispo.","TRANSPORTE":"Bus: 22 , 76 , 79  Servicio Bicimad, para consultar la estaci\u00f3n m\u00e1s cercana, acceda al mapa de geolocalizaci\u00f3n de las estaciones.","CLASE-VIA":"CALLE","NOMBRE-VIA":"PALOMARES","NUM":34.0,"BARRIO":"SAN ANDRES","DISTRITO":"VILLAVERDE","COORDENADA-X":439520.0,"COORDENADA-Y":4466514.0,"LATITUD":40.3469800923,"LONGITUD":-3.7121457194},{"PK":5987836,"NOMBRE":"Parque Juan Carlos I","TRANSPORTE":"Metro: Feria de Madrid (l\u00ednea 8)  Bus: 104, 112, 122  Servicio Bicimad, para consultar la estaci\u00f3n m\u00e1s cercana, acceda al mapa de geolocalizaci\u00f3n de las estaciones.","CLASE-VIA":"GLORIETA","NOMBRE-VIA":"S.A.R. DON JUAN DE BORBON Y BATTEMBERG, 5","NUM":5.0,"BARRIO":"CORRALEJOS","DISTRITO":"BARAJAS","COORDENADA-X":447867.0,"COORDENADA-Y":4478996.0,"LATITUD":40.4599984851,"LONGITUD":-3.6148888706},{"PK":5996223,"NOMBRE":"Parque Juan Pablo II","TRANSPORTE":"Bus: 112 , 122  Servicio Bicimad, para consultar la estaci\u00f3n m\u00e1s cercana, acceda al mapa de geolocalizaci\u00f3n de las estaciones.","CLASE-VIA":"AVENIDA","NOMBRE-VIA":"MACHUPICHU","NUM":1.0,"BARRIO":"PIOVERA","DISTRITO":"HORTALEZA","COORDENADA-X":447131.0,"COORDENADA-Y":4478496.0,"LATITUD":40.4554476427,"LONGITUD":-3.6235393753},{"PK":11040880,"NOMBRE":"Parque Juan de la Cosa","TRANSPORTE":"Metro: l\u00edneas 8 y 9 (Colombia)  Bus: 14,7,16,29,51","CLASE-VIA":"CALLE","NOMBRE-VIA":"VICTOR ANDRES BELAUNDE","NUM":1.0,"BARRIO":"HISPANOAMERICA","DISTRITO":"CHAMARTIN","COORDENADA-X":442411.0,"COORDENADA-Y":4478397.0,"LATITUD":40.4542421062,"LONGITUD":-3.6791716274},{"PK":5993167,"NOMBRE":"Parque La Rinconada","TRANSPORTE":"Bus: 160  Servicio Bicimad, para consultar la estaci\u00f3n m\u00e1s cercana, acceda al mapa de geolocalizaci\u00f3n de las estaciones.","CLASE-VIA":"CALLE","NOMBRE-VIA":"HIENDELAENCINA","NUM":9.0,"BARRIO":"ARAVACA","DISTRITO":"MONCLOA-ARAVACA","COORDENADA-X":435014.0,"COORDENADA-Y":4478821.0,"LATITUD":40.4575072569,"LONGITUD":-3.766455491},{"PK":5978304,"NOMBRE":"Parque La Vi\u00f1a","TRANSPORTE":"Bus: 102 Renfe: Asamblea de Madrid- Entrev\u00edas","CLASE-VIA":"CALLE","NOMBRE-VIA":"TIMOTEO PEREZ RUBIO","NUM":9.0,"BARRIO":"ENTREVIAS","DISTRITO":"PUENTE DE VALLECAS","COORDENADA-X":442766.0,"COORDENADA-Y":4470771.0,"LATITUD":40.3855677438,"LONGITUD":-3.6743091457},{"PK":5984737,"NOMBRE":"Parque Ladera de los Almendros","TRANSPORTE":"Bus: 8 , 71  Servicio Bicimad, para consultar la estaci\u00f3n m\u00e1s cercana, acceda al mapa de geolocalizaci\u00f3n de las estaciones.","CLASE-VIA":"CALLE","NOMBRE-VIA":"LADERA DE LOS ALMENDROS","NUM":46.0,"BARRIO":"VALDEBERNARDO","DISTRITO":"VICALVARO","COORDENADA-X":441618.174427252,"COORDENADA-Y":4471766.0936951777,"LATITUD":40.3961643154,"LONGITUD":-3.6261065047},{"PK":5977748,"NOMBRE":"Parque Lineal de Palomeras","TRANSPORTE":"Bus: 54, 58, 103, 142, 143, 310 Metro: Miguel Hern\u00e1ndez  Servicio Bicimad, para consultar la estaci\u00f3n m\u00e1s cercana, acceda al mapa de geolocalizaci\u00f3n de las estaciones.","CLASE-VIA":"AVENIDA","NOMBRE-VIA":"ALBUFERA","NUM":293.0,"BARRIO":"PALOMERAS SURESTE","DISTRITO":"PUENTE DE VALLECAS","COORDENADA-X":445987.0,"COORDENADA-Y":4470776.0,"LATITUD":40.3858188287,"LONGITUD":-3.6363631773},{"PK":5987787,"NOMBRE":"Parque Lineal del Manzanares (Usera - Pte de Vallecas)","TRANSPORTE":"Metro: Doce de Octubre (l\u00ednea 3) Bus: 23 , 123 , 78  Servicio Bicimad, para consultar la estaci\u00f3n m\u00e1s cercana, acceda al mapa de geolocalizaci\u00f3n de las estaciones.","CLASE-VIA":"CAMINO","NOMBRE-VIA":"PERALES","NUM":47.0,"BARRIO":"ALMENDRALES","DISTRITO":"USERA","COORDENADA-X":439780.7569947311,"COORDENADA-Y":4470039.6980278157,"LATITUD":40.379745,"LONGITUD":-3.690042},{"PK":6372574,"NOMBRE":"Parque Madrid R\u00edo","TRANSPORTE":"Metro: Pr\u00edncipe P\u00edo (l\u00ednea 6 y 10), Puerta del \u00c1ngel (l\u00ednea 6), Pir\u00e1mides (l\u00ednea 5), Marqu\u00e9s de Vadillo (l\u00ednea 5), Legazpi (l\u00ednea 3 y 6) y Almendrales (l\u00ednea 3). RENFE: Pr\u00edncipe P\u00edo, Pir\u00e1mides. Aparcamiento P\u00fablico (pr\u00f3ximo): Paseo de Extremadura y Principe Pio.  Servicio Bicimad, para consultar la estaci\u00f3n m\u00e1s cercana, acceda al mapa de geolocalizaci\u00f3n de las estaciones.","CLASE-VIA":"PASARELA HISTORICA","NOMBRE-VIA":"PASEO DE LAS YESERIAS","NUM":"No disponible","BARRIO":"No disponible","DISTRITO":"DISTRITO","COORDENADA-X":439532.0,"COORDENADA-Y":4472193.0,"LATITUD":40.398154399,"LONGITUD":-3.712535944},{"PK":5983740,"NOMBRE":"Parque Martala","TRANSPORTE":"Bus: 32, 71  Servicio Bicimad, para consultar la estaci\u00f3n m\u00e1s cercana, acceda al mapa de geolocalizaci\u00f3n de las estaciones.","CLASE-VIA":"AVENIDA","NOMBRE-VIA":"MORATALAZ","NUM":183.0,"BARRIO":"MARROQUINA","DISTRITO":"MORATALAZ","COORDENADA-X":445366.0,"COORDENADA-Y":4473334.0,"LATITUD":40.408822368,"LONGITUD":-3.6438986527},{"PK":5963936,"NOMBRE":"Parque Martin Luther King","TRANSPORTE":"Metro: Conde de Casal (l\u00ednea 6). Bus: 8 , 10 , 24 , 54 , 56 , 57 , 113 , 136, 141 , 148 , 310.  Servicio Bicimad, para consultar la estaci\u00f3n m\u00e1s cercana, acceda al mapa de geolocalizaci\u00f3n de las estaciones.","CLASE-VIA":"CALLE","NOMBRE-VIA":"CERRO NEGRO","NUM":1.0,"BARRIO":"ADELFAS","DISTRITO":"RETIRO","COORDENADA-X":443131.0,"COORDENADA-Y":4472170.0,"LATITUD":40.3981957333,"LONGITUD":-3.6701340561},{"PK":5983593,"NOMBRE":"Parque Meseta de Orcasitas","TRANSPORTE":"Bus: 60  Servicio Bicimad, para consultar la estaci\u00f3n m\u00e1s cercana, acceda al mapa de geolocalizaci\u00f3n de las estaciones.","CLASE-VIA":"RONDA","NOMBRE-VIA":"COOPERATIVAS","NUM":6.0,"BARRIO":"ORCASITAS","DISTRITO":"USERA","COORDENADA-X":439919.0,"COORDENADA-Y":4468772.0,"LATITUD":40.3673502444,"LONGITUD":-3.7076605179},{"PK":5965953,"NOMBRE":"Parque Mirador de Tierno Galv\u00e1n","TRANSPORTE":"Bus: 148  Servicio Bicimad, para consultar la estaci\u00f3n m\u00e1s cercana, acceda al mapa de geolocalizaci\u00f3n de las estaciones.","CLASE-VIA":"CALLE","NOMBRE-VIA":"NEBULOSAS","NUM":7.0,"BARRIO":"DELICIAS","DISTRITO":"ARGANZUELA","COORDENADA-X":441813.0,"COORDENADA-Y":4471797.0,"LATITUD":40.3947354912,"LONGITUD":-3.6856299108},{"PK":6006578,"NOMBRE":"Parque Mirador de las C\u00e1rcavas","TRANSPORTE":"Bus: 87  Servicio Bicimad, para consultar la estaci\u00f3n m\u00e1s cercana, acceda al mapa de geolocalizaci\u00f3n de las estaciones.","CLASE-VIA":"CALLE","NOMBRE-VIA":"RAFAELA APARICIO","NUM":2.0,"BARRIO":"VALDEFUENTES","DISTRITO":"HORTALEZA","COORDENADA-X":446347.0,"COORDENADA-Y":4481136.0,"LATITUD":40.4791798977,"LONGITUD":-3.6330084508},{"PK":5998367,"NOMBRE":"Parque Norte","TRANSPORTE":"Bus: 124, 137  Servicio Bicimad, para consultar la estaci\u00f3n m\u00e1s cercana, acceda al mapa de geolocalizaci\u00f3n de las estaciones.","CLASE-VIA":"CALLE","NOMBRE-VIA":"ARZOBISPO MORCILLO","NUM":7.0,"BARRIO":"LA PAZ","DISTRITO":"FUENCARRAL-EL PARDO","COORDENADA-X":441233.0,"COORDENADA-Y":4481384.0,"LATITUD":40.4810678742,"LONGITUD":-3.6933504629},{"PK":5997754,"NOMBRE":"Parque Nudo Norte de Bego\u00f1a","TRANSPORTE":"Metro: Bego\u00f1a (l\u00ednea 10) Bus: 124, 137  Servicio Bicimad, para consultar la estaci\u00f3n m\u00e1s cercana, acceda al mapa de geolocalizaci\u00f3n de las estaciones.","CLASE-VIA":"AVENIDA","NOMBRE-VIA":"LLANO CASTELLANO","NUM":1.0,"BARRIO":"VALVERDE","DISTRITO":"FUENCARRAL-EL PARDO","COORDENADA-X":441989.0,"COORDENADA-Y":4481693.0,"LATITUD":40.4838955548,"LONGITUD":-3.6844715393},{"PK":5983597,"NOMBRE":"Parque Olof Palme","TRANSPORTE":"Metro: Plaza El\u00edptica (l\u00ednea 6 y 11) B\u00fas: 47 , 60 , 81 , 247  Servicio Bicimad, para consultar la estaci\u00f3n m\u00e1s cercana, acceda al mapa de geolocalizaci\u00f3n de las estaciones.","CLASE-VIA":"CALLE","NOMBRE-VIA":"CERECINOS","NUM":1.0,"BARRIO":"ZOFIO","DISTRITO":"USERA","COORDENADA-X":439486.0,"COORDENADA-Y":4470667.0,"LATITUD":40.3843990027,"LONGITUD":-3.7129519968},{"PK":10965194,"NOMBRE":"Parque Orlando Zapata Tamayo","TRANSPORTE":"Metro: l\u00edneas 8 y 9 (Colombia)  Bus: 52  Servicio Bicimad, para consultar la estaci\u00f3n m\u00e1s cercana, acceda al mapa de geolocalizaci\u00f3n de las estaciones.","CLASE-VIA":"CALLE","NOMBRE-VIA":"URUGUAY","NUM":6.0,"BARRIO":"HISPANOAMERICA","DISTRITO":"CHAMARTIN","COORDENADA-X":442825.0,"COORDENADA-Y":4478479.0,"LATITUD":40.4550113052,"LONGITUD":-3.6743070613},{"PK":5991690,"NOMBRE":"Parque Paseo Mu\u00f1oz Grandes","TRANSPORTE":"Bus: 34 , 35  Servicio Bicimad, para consultar la estaci\u00f3n m\u00e1s cercana, acceda al mapa de geolocalizaci\u00f3n de las estaciones.","CLASE-VIA":"PASEO","NOMBRE-VIA":"MARCELINO CAMACHO","NUM":6.0,"BARRIO":"VISTA ALEGRE","DISTRITO":"CARABANCHEL","COORDENADA-X":437204.0,"COORDENADA-Y":4470763.0,"LATITUD":40.3850860084,"LONGITUD":-3.7398326701},{"PK":5978254,"NOMBRE":"Parque Payaso Fof\u00f3","TRANSPORTE":"Bus: 310, 410, 144, 57, 136 RENFE: Asamblea de Madrid - Entrev\u00edas.  Servicio Bicimad, para consultar la estaci\u00f3n m\u00e1s cercana, acceda al mapa de geolocalizaci\u00f3n de las estaciones.","CLASE-VIA":"CALLE","NOMBRE-VIA":"PAYASO FOFO","NUM":11.0,"BARRIO":"PALOMERAS BAJAS","DISTRITO":"PUENTE DE VALLECAS","COORDENADA-X":443987.0,"COORDENADA-Y":4471144.0,"LATITUD":40.3890108696,"LONGITUD":-3.6599692833},{"PK":5966334,"NOMBRE":"Parque Pe\u00f1uelas","TRANSPORTE":"Metro: Pir\u00e1mides (l\u00ednea 5) Bus:18, 62  Servicio Bicimad, para consultar la estaci\u00f3n m\u00e1s cercana, acceda al mapa de geolocalizaci\u00f3n de las estaciones.","CLASE-VIA":"CALLE","NOMBRE-VIA":"GARGANTILLA","NUM":2.0,"BARRIO":"ACACIAS","DISTRITO":"ARGANZUELA","COORDENADA-X":440265.0,"COORDENADA-Y":4472283.0,"LATITUD":40.3990039636,"LONGITUD":-3.7039264168},{"PK":5995661,"NOMBRE":"Parque Pinar de la Elipa","TRANSPORTE":"Bus: 28 , 71 , 110 , 113 , 210  Servicio Bicimad, para consultar la estaci\u00f3n m\u00e1s cercana, acceda al mapa de geolocalizaci\u00f3n de las estaciones.","CLASE-VIA":"CALLE","NOMBRE-VIA":"FELIX RODRIGUEZ DE LA FUENTE","NUM":26.0,"BARRIO":"VENTAS","DISTRITO":"CIUDAD LINEAL","COORDENADA-X":444319.0,"COORDENADA-Y":4474450.0,"LATITUD":40.4188064856,"LONGITUD":-3.6563469592},{"PK":6007525,"NOMBRE":"Parque Pinar del Rey","TRANSPORTE":"Bus: 9 , 72 , 87 , 125 , 229  Servicio Bicimad, para consultar la estaci\u00f3n m\u00e1s cercana, acceda al mapa de geolocalizaci\u00f3n de las estaciones.","CLASE-VIA":"CARRETERA","NOMBRE-VIA":"CANILLAS","NUM":1.0,"BARRIO":"CANILLAS","DISTRITO":"HORTALEZA","COORDENADA-X":444414.0,"COORDENADA-Y":4479404.0,"LATITUD":40.4634411294,"LONGITUD":-3.6556488853},{"PK":5985975,"NOMBRE":"Parque Plaza Chozas de Canales","TRANSPORTE":"Metro: Villaverde Bajo Cruce (l\u00ednea 3) Bus: 22, 59, 79, 85, 123, 130  Servicio Bicimad, para consultar la estaci\u00f3n m\u00e1s cercana, acceda al mapa de geolocalizaci\u00f3n de las estaciones.","CLASE-VIA":"CARRETERA","NOMBRE-VIA":"VILLAVERDE A VALLECAS","NUM":10.0,"BARRIO":"LOS ROSALES","DISTRITO":"VILLAVERDE","COORDENADA-X":441360.0,"COORDENADA-Y":4467143.0,"LATITUD":40.3527778652,"LONGITUD":-3.6905392177},{"PK":5986841,"NOMBRE":"Parque Plaza Colonia Oroquieta","TRANSPORTE":"Metro: Villaverde Cruce (l\u00ednea 3) Bus: 22, 59, 79, 85, 123, 130  Servicio Bicimad, para consultar la estaci\u00f3n m\u00e1s cercana, acceda al mapa de geolocalizaci\u00f3n de las estaciones.","CLASE-VIA":"CARRETERA","NOMBRE-VIA":"VILLAVERDE A VALLECAS","NUM":1.0,"BARRIO":"LOS ROSALES","DISTRITO":"VILLAVERDE","COORDENADA-X":441255.0,"COORDENADA-Y":4467101.0,"LATITUD":40.3523921157,"LONGITUD":-3.6917717362},{"PK":5993732,"NOMBRE":"Parque Plaza de Espa\u00f1a","TRANSPORTE":"Metro: Plaza Espa\u00f1a (l\u00ednea 2 y 3) Bus: 1, 2, 44, 74, C  Servicio Bicimad, para consultar la estaci\u00f3n m\u00e1s cercana, acceda al mapa de geolocalizaci\u00f3n de las estaciones.","CLASE-VIA":"PLAZA","NOMBRE-VIA":"ESPA\u00d1A","NUM":20.0,"BARRIO":"ARGUELLES","DISTRITO":"MONCLOA-ARAVACA","COORDENADA-X":439631.0,"COORDENADA-Y":4475032.0,"LATITUD":40.4237225118,"LONGITUD":-3.7116577341},{"PK":5985750,"NOMBRE":"Parque Quinta de los Molinos","TRANSPORTE":"Metro: Suanzes (l\u00ednea 5) Bus: 77, 104, 105, L5  Servicio Bicimad, para consultar la estaci\u00f3n m\u00e1s cercana, acceda al mapa de geolocalizaci\u00f3n de las estaciones.","CLASE-VIA":"CALLE","NOMBRE-VIA":"ALCALA","NUM":527.0,"BARRIO":"EL SALVADOR","DISTRITO":"SAN BLAS-CANILLEJAS","COORDENADA-X":446935.0,"COORDENADA-Y":4476935.0,"LATITUD":40.4424574872,"LONGITUD":-3.6217095632},{"PK":10966231,"NOMBRE":"Parque Ram\u00edrez de Prado","TRANSPORTE":"Metro: Delicias (l\u00ednea 3)  Bus: 8, 102, 152, N11, N13  Servicio Bicimad, para consultar la estaci\u00f3n m\u00e1s cercana, acceda al mapa de geolocalizaci\u00f3n de las estaciones.","CLASE-VIA":"CALLE","NOMBRE-VIA":"RAMIREZ DE PRADO","NUM":2.0,"BARRIO":"DELICIAS","DISTRITO":"ARGANZUELA","COORDENADA-X":441489.0,"COORDENADA-Y":4472308.0,"LATITUD":40.3993256919,"LONGITUD":-3.6894842201},{"PK":5963656,"NOMBRE":"Parque Roma","TRANSPORTE":"Metro: Sa\u00ednz de Baranda (l\u00ednea 6 y 9) Autob\u00fas: 30 , 56 , 143, 215  Servicio Bicimad, para consultar la estaci\u00f3n m\u00e1s cercana, acceda al mapa de geolocalizaci\u00f3n de las estaciones.","CLASE-VIA":"CALLE","NOMBRE-VIA":"JUAN ESPLANDIU","NUM":4.0,"BARRIO":"ESTRELLA","DISTRITO":"RETIRO","COORDENADA-X":443786.0,"COORDENADA-Y":4474188.0,"LATITUD":40.4164104109,"LONGITUD":-3.6626061003},{"PK":5995523,"NOMBRE":"Parque Salvador de Madariaga","TRANSPORTE":"Bus: 21 , 48 , 53  Servicio Bicimad, para consultar la estaci\u00f3n m\u00e1s cercana, acceda al mapa de geolocalizaci\u00f3n de las estaciones.","CLASE-VIA":"CALLE","NOMBRE-VIA":"SALVADOR DE MADARIAGA","NUM":9.0,"BARRIO":"SAN PASCUAL","DISTRITO":"CIUDAD LINEAL","COORDENADA-X":444268.0,"COORDENADA-Y":4476735.0,"LATITUD":40.4393875841,"LONGITUD":-3.6571484129},{"PK":5985083,"NOMBRE":"Parque San Blas. El Para\u00edso","TRANSPORTE":"Metro: Simancas (l\u00ednea 7) Bus: 38, 109 y L7  Servicio Bicimad, para consultar la estaci\u00f3n m\u00e1s cercana, acceda al mapa de geolocalizaci\u00f3n de las estaciones.","CLASE-VIA":"AVENIDA","NOMBRE-VIA":"ARCENTALES","NUM":4.0,"BARRIO":"HELLIN","DISTRITO":"SAN BLAS-CANILLEJAS","COORDENADA-X":447225.0,"COORDENADA-Y":4475668.0,"LATITUD":40.42996841,"LONGITUD":-3.622184001},{"PK":5963115,"NOMBRE":"Parque San Jos\u00e9 de Calasanz","TRANSPORTE":"Bus: 2, 16, 61, 202  Servicio Bicimad, para consultar la estaci\u00f3n m\u00e1s cercana, acceda al mapa de geolocalizaci\u00f3n de las estaciones.","CLASE-VIA":"CALLE","NOMBRE-VIA":"JOAQUIN MARIA LOPEZ","NUM":39.0,"BARRIO":"GAZTAMBIDE","DISTRITO":"CHAMBERI","COORDENADA-X":439395.0,"COORDENADA-Y":4476576.0,"LATITUD":40.4376143682,"LONGITUD":-3.7145867743},{"PK":5995933,"NOMBRE":"Parque San Juan Bautista","TRANSPORTE":"Bus: 53  Servicio Bicimad, para consultar la estaci\u00f3n m\u00e1s cercana, acceda al mapa de geolocalizaci\u00f3n de las estaciones.","CLASE-VIA":"CALLE","NOMBRE-VIA":"AGASTIA","NUM":87.0,"BARRIO":"SAN JUAN BAUTISTA","DISTRITO":"CIUDAD LINEAL","COORDENADA-X":444384.0,"COORDENADA-Y":4478056.0,"LATITUD":40.4513046091,"LONGITUD":-3.6558964974},{"PK":6010395,"NOMBRE":"Parque Sancho D\u00e1vila","TRANSPORTE":"Metro: Ventas (l\u00ednea 2 y 5) Bus: 12  Servicio Bicimad, para consultar la estaci\u00f3n m\u00e1s cercana, acceda al mapa de geolocalizaci\u00f3n de las estaciones.","CLASE-VIA":"PLAZA","NOMBRE-VIA":"AMERICA ESPA\u00d1OLA","NUM":4.0,"BARRIO":"FUENTE DEL BERRO","DISTRITO":"SALAMANCA","COORDENADA-X":443866.0,"COORDENADA-Y":4475639.0,"LATITUD":40.4294962792,"LONGITUD":-3.6617795916},{"PK":5997450,"NOMBRE":"Parque Santa Eugenia","TRANSPORTE":"Bus: 58 , 63 , N9 , 145  Servicio Bicimad, para consultar la estaci\u00f3n m\u00e1s cercana, acceda al mapa de geolocalizaci\u00f3n de las estaciones.","CLASE-VIA":"CALLE","NOMBRE-VIA":"Cerro Almod\u00f3var","NUM":1.0,"BARRIO":"SANTA EUGENIA","DISTRITO":"VILLA DE VALLECAS","COORDENADA-X":448352.0,"COORDENADA-Y":4470258.0,"LATITUD":40.3813113058,"LONGITUD":-3.6084591496},{"PK":5990397,"NOMBRE":"Parque Santa Rita","TRANSPORTE":"Bus: 34  Servicio Bicimad, para consultar la estaci\u00f3n m\u00e1s cercana, acceda al mapa de geolocalizaci\u00f3n de las estaciones.","CLASE-VIA":"CALLE","NOMBRE-VIA":"ALBA DE TORMES","NUM":2.0,"BARRIO":"PUERTA BONITA","DISTRITO":"CARABANCHEL","COORDENADA-X":436950.0,"COORDENADA-Y":4470094.0,"LATITUD":40.3790400979,"LONGITUD":-3.7427705222},{"PK":5983453,"NOMBRE":"Parque Segura","TRANSPORTE":"Bus: 60  Servicio Bicimad, para consultar la estaci\u00f3n m\u00e1s cercana, acceda al mapa de geolocalizaci\u00f3n de las estaciones.","CLASE-VIA":"CALLE","NOMBRE-VIA":"SEGURA","NUM":5.0,"BARRIO":"ORCASITAS","DISTRITO":"USERA","COORDENADA-X":439223.0,"COORDENADA-Y":4468850.0,"LATITUD":40.3680113946,"LONGITUD":-3.7158770173},{"PK":5978156,"NOMBRE":"Parque Soto de Entrev\u00edas","TRANSPORTE":"Bus:  102, 111  Servicio Bicimad, para consultar la estaci\u00f3n m\u00e1s cercana, acceda al mapa de geolocalizaci\u00f3n de las estaciones.","CLASE-VIA":"CARRETERA","NOMBRE-VIA":"ACCESO A LA ESTACION DE AUTOBUSES DE LA E.M.T.","NUM":9.0,"BARRIO":"ENTREVIAS","DISTRITO":"PUENTE DE VALLECAS","COORDENADA-X":442697.0,"COORDENADA-Y":4469773.0,"LATITUD":40.3765633592,"LONGITUD":-3.6750439672},{"PK":5997775,"NOMBRE":"Parque Urpisa","TRANSPORTE":"Bus: 54, 58, 103, 142 y N9 Metro: Villa de Vallecas (l\u00ednea 1)  Servicio Bicimad, para consultar la estaci\u00f3n m\u00e1s cercana, acceda al mapa de geolocalizaci\u00f3n de las estaciones.","CLASE-VIA":"CAMINO","NOMBRE-VIA":"VASARES","NUM":2.0,"BARRIO":"CASCO H.VALLECAS","DISTRITO":"VILLA DE VALLECAS","COORDENADA-X":447404.0,"COORDENADA-Y":4470439.0,"LATITUD":40.3828915853,"LONGITUD":-3.619641838},{"PK":6451784,"NOMBRE":"Parque Valdebernardo Este","TRANSPORTE":"Metro: Valdebernardo (l\u00ednea 9) Bus: 71  Servicio Bicimad, para consultar la estaci\u00f3n m\u00e1s cercana, acceda al mapa de geolocalizaci\u00f3n de las estaciones.","CLASE-VIA":"CALLE","NOMBRE-VIA":"CORDEL DE PAVONES","NUM":2.0,"BARRIO":"CASCO H.VICALVARO","DISTRITO":"VICALVARO","COORDENADA-X":447581.0,"COORDENADA-Y":4472644.0,"LATITUD":40.4027578377,"LONGITUD":-3.6177380998},{"PK":6003192,"NOMBRE":"Parque Valle de Enmedio","TRANSPORTE":"Bus: 64 Metro: Lacoma (l\u00ednea 7)  Servicio Bicimad, para consultar la estaci\u00f3n m\u00e1s cercana, acceda al mapa de geolocalizaci\u00f3n de las estaciones.","CLASE-VIA":"CALLE","NOMBRE-VIA":"MIRADOR DE LA REINA","NUM":22.0,"BARRIO":"MIRASIERRA","DISTRITO":"FUENCARRAL-EL PARDO","COORDENADA-X":438663.0,"COORDENADA-Y":4482311.0,"LATITUD":40.4892237159,"LONGITUD":-3.7237594351},{"PK":5997881,"NOMBRE":"Parque Vallecas Villa","TRANSPORTE":"Bus: 54, 103, 142 y N9 Metro: Congosto (l\u00ednea 1)  Servicio Bicimad, para consultar la estaci\u00f3n m\u00e1s cercana, acceda al mapa de geolocalizaci\u00f3n de las estaciones.","CLASE-VIA":"CALLE","NOMBRE-VIA":"BABILAFUENTE","NUM":2.0,"BARRIO":"CASCO H.VALLECAS","DISTRITO":"VILLA DE VALLECAS","COORDENADA-X":447039.0,"COORDENADA-Y":4469253.0,"LATITUD":40.3721751633,"LONGITUD":-3.6238430833},{"PK":5983786,"NOMBRE":"Parque Vandel","TRANSPORTE":"Bus: 32  Servicio Bicimad, para consultar la estaci\u00f3n m\u00e1s cercana, acceda al mapa de geolocalizaci\u00f3n de las estaciones.","CLASE-VIA":"CALLE","NOMBRE-VIA":"MOLINA DE SEGURA","NUM":10.0,"BARRIO":"MARROQUINA","DISTRITO":"MORATALAZ","COORDENADA-X":445952.0,"COORDENADA-Y":4472896.0,"LATITUD":40.4049148503,"LONGITUD":-3.6369554548},{"PK":5981878,"NOMBRE":"Parque Virgen de la Esperanza","TRANSPORTE":"Bus: 22 , 76 , 79  Servicio Bicimad, para consultar la estaci\u00f3n m\u00e1s cercana, acceda al mapa de geolocalizaci\u00f3n de las estaciones.","CLASE-VIA":"CALLE","NOMBRE-VIA":"ANOETA","NUM":45.0,"BARRIO":"LOS ANGELES","DISTRITO":"VILLAVERDE","COORDENADA-X":440471.0,"COORDENADA-Y":4466956.0,"LATITUD":40.3510302156,"LONGITUD":-3.7010015934},{"PK":5968415,"NOMBRE":"Parque de Alfonso XIII","TRANSPORTE":"Bus: 52  Servicio Bicimad, para consultar la estaci\u00f3n m\u00e1s cercana, acceda al mapa de geolocalizaci\u00f3n de las estaciones.","CLASE-VIA":"AVENIDA","NOMBRE-VIA":"ALFONSO XIII","NUM":136.0,"BARRIO":"NUEVA ESPA\u00d1A","DISTRITO":"CHAMARTIN","COORDENADA-X":443267.0,"COORDENADA-Y":4479019.0,"LATITUD":40.4599043494,"LONGITUD":-3.6691428051},{"PK":5986764,"NOMBRE":"Parque de Amos Acero","TRANSPORTE":"Bus: 103, 111, 57, 144, 310  Servicio Bicimad, para consultar la estaci\u00f3n m\u00e1s cercana, acceda al mapa de geolocalizaci\u00f3n de las estaciones.","CLASE-VIA":"CALLE","NOMBRE-VIA":"SIERRA MOLINA","NUM":1.0,"BARRIO":"SAN DIEGO","DISTRITO":"PUENTE DE VALLECAS","COORDENADA-X":443430.0,"COORDENADA-Y":4471151.0,"LATITUD":40.3890362899,"LONGITUD":-3.6665321827},{"PK":5992569,"NOMBRE":"Parque de Ana Tutor","TRANSPORTE":"Bus: 49, 64  Servicio Bicimad, para consultar la estaci\u00f3n m\u00e1s cercana, acceda al mapa de geolocalizaci\u00f3n de las estaciones.","CLASE-VIA":"CALLE","NOMBRE-VIA":"VALLE DE PINARES LLANOS","NUM":1.0,"BARRIO":"PE\u00d1A GRANDE","DISTRITO":"FUENCARRAL-EL PARDO","COORDENADA-X":439199.0,"COORDENADA-Y":4481904.0,"LATITUD":40.4855966832,"LONGITUD":-3.7174080145},{"PK":5994605,"NOMBRE":"Parque de Arriaga","TRANSPORTE":"Bus: 106 , 109  Servicio Bicimad, para consultar la estaci\u00f3n m\u00e1s cercana, acceda al mapa de geolocalizaci\u00f3n de las estaciones.","CLASE-VIA":"AVENIDA","NOMBRE-VIA":"DAROCA","NUM":95.0,"BARRIO":"PUEBLO NUEVO","DISTRITO":"CIUDAD LINEAL","COORDENADA-X":445479.0,"COORDENADA-Y":4475138.0,"LATITUD":40.425090271,"LONGITUD":-3.6427216652},{"PK":6009741,"NOMBRE":"Parque de Atenas","TRANSPORTE":"Bus: 3 , 31 , 41 , 50 , 65 , 148 , C1 , L3   Servicio Bicimad, para consultar la estaci\u00f3n m\u00e1s cercana, acceda al mapa de geolocalizaci\u00f3n de las estaciones.","CLASE-VIA":"CALLE","NOMBRE-VIA":"SEGOVIA","NUM":28.0,"BARRIO":"PALACIO","DISTRITO":"CENTRO","COORDENADA-X":439327.0,"COORDENADA-Y":4473951.0,"LATITUD":40.413971277,"LONGITUD":-3.7151380755},{"PK":5969105,"NOMBRE":"Parque de Berl\u00edn","TRANSPORTE":"Metro: Concha Espina (l\u00ednea 9) Bus: 16, 29, 43, 52 y 120  Servicio Bicimad, para consultar la estaci\u00f3n m\u00e1s cercana, acceda al mapa de geolocalizaci\u00f3n de las estaciones.","CLASE-VIA":"AVENIDA","NOMBRE-VIA":"RAMON Y CAJAL","NUM":2.0,"BARRIO":"CIUDAD JARDIN","DISTRITO":"CHAMARTIN","COORDENADA-X":442673.0,"COORDENADA-Y":4478091.0,"LATITUD":40.4515037285,"LONGITUD":-3.6760645355},{"PK":6010393,"NOMBRE":"Parque de Breog\u00e1n","TRANSPORTE":"Metro: Parque Avenidas (l\u00ednea 7) Bus: 21, 43, 48 , 53 y 74  Servicio Bicimad, para consultar la estaci\u00f3n m\u00e1s cercana, acceda al mapa de geolocalizaci\u00f3n de las estaciones.","CLASE-VIA":"AVENIDA","NOMBRE-VIA":"BRASILIA","NUM":2.0,"BARRIO":"GUINDALERA","DISTRITO":"SALAMANCA","COORDENADA-X":443948.0,"COORDENADA-Y":4476487.0,"LATITUD":40.4371409712,"LONGITUD":-3.6608995093},{"PK":5984659,"NOMBRE":"Parque de Canillejas","TRANSPORTE":"Bus: 28, 48   Servicio Bicimad, para consultar la estaci\u00f3n m\u00e1s cercana, acceda al mapa de geolocalizaci\u00f3n de las estaciones.","CLASE-VIA":"CALLE","NOMBRE-VIA":"CIRCE","NUM":57.0,"BARRIO":"CANILLEJAS","DISTRITO":"SAN BLAS-CANILLEJAS","COORDENADA-X":448198.0,"COORDENADA-Y":4476986.0,"LATITUD":40.4419118663,"LONGITUD":-3.6108328804},{"PK":5986854,"NOMBRE":"Parque de Comillas","TRANSPORTE":"Bus: 55, 60 y 116  Servicio Bicimad, para consultar la estaci\u00f3n m\u00e1s cercana, acceda al mapa de geolocalizaci\u00f3n de las estaciones.","CLASE-VIA":"CALLE","NOMBRE-VIA":"MIGUEL SORIANO","NUM":1.0,"BARRIO":"COMILLAS","DISTRITO":"CARABANCHEL","COORDENADA-X":439391.0,"COORDENADA-Y":4471503.0,"LATITUD":40.3919141912,"LONGITUD":-3.7141505979},{"PK":5981170,"NOMBRE":"Parque de Darwin","TRANSPORTE":"Bus: 8, 20 y 113.   Servicio Bicimad, para consultar la estaci\u00f3n m\u00e1s cercana, acceda al mapa de geolocalizaci\u00f3n de las estaciones.","CLASE-VIA":"CALLE","NOMBRE-VIA":"MANUEL MARIA ARRILLAGA","NUM":29.0,"BARRIO":"FONTARRON","DISTRITO":"MORATALAZ","COORDENADA-X":443926.0,"COORDENADA-Y":4473129.0,"LATITUD":40.4068797911,"LONGITUD":-3.6608626911},{"PK":5963981,"NOMBRE":"Parque de Enrique Herreros","TRANSPORTE":"Metro: Canal (l\u00edneas 2, 7) Bus: 3 , 12 , 37 , 149  Servicio Bicimad, para consultar la estaci\u00f3n m\u00e1s cercana, acceda al mapa de geolocalizaci\u00f3n de las estaciones.","CLASE-VIA":"CALLE","NOMBRE-VIA":"BRAVO MURILLO","NUM":49.0,"BARRIO":"VALLEHERMOSO","DISTRITO":"CHAMBERI","COORDENADA-X":440261.0,"COORDENADA-Y":4476761.0,"LATITUD":40.4393435905,"LONGITUD":-3.7043941647},{"PK":5993103,"NOMBRE":"Parque de Francos Rodr\u00edguez","TRANSPORTE":"Bus: 132, 44 Metro: Francos Rodr\u00edguez (l\u00ednea 7)  Servicio Bicimad, para consultar la estaci\u00f3n m\u00e1s cercana, acceda al mapa de geolocalizaci\u00f3n de las estaciones.","CLASE-VIA":"AVENIDA","NOMBRE-VIA":"DOCTOR FEDERICO RUBIO Y GALI","NUM":63.0,"BARRIO":"CIUDAD UNIVERSITARIA","DISTRITO":"MONCLOA-ARAVACA","COORDENADA-X":439443.0,"COORDENADA-Y":4478366.0,"LATITUD":40.4537429844,"LONGITUD":-3.7141797321},{"PK":5995881,"NOMBRE":"Parque de Fuencarral","TRANSPORTE":"Bus: 66, 137  Servicio Bicimad, para consultar la estaci\u00f3n m\u00e1s cercana, acceda al mapa de geolocalizaci\u00f3n de las estaciones.","CLASE-VIA":"CALLE","NOMBRE-VIA":"NUESTRA SE\u00d1ORA DE VALVERDE","NUM":151.0,"BARRIO":"VALVERDE","DISTRITO":"FUENCARRAL-EL PARDO","COORDENADA-X":441863.0,"COORDENADA-Y":4483506.0,"LATITUD":40.5002189477,"LONGITUD":-3.68612442},{"PK":5996408,"NOMBRE":"Parque de Fuentechica","TRANSPORTE":"Bus: 66, 137   Servicio Bicimad, para consultar la estaci\u00f3n m\u00e1s cercana, acceda al mapa de geolocalizaci\u00f3n de las estaciones.","CLASE-VIA":"CALLE","NOMBRE-VIA":"ANASTASIA LOPEZ","NUM":21.0,"BARRIO":"VALVERDE","DISTRITO":"FUENCARRAL-EL PARDO","COORDENADA-X":441401.0,"COORDENADA-Y":4483010.0,"LATITUD":40.495718299,"LONGITUD":-3.6915305267},{"PK":5996070,"NOMBRE":"Parque de Fuentelarreina","TRANSPORTE":"Bus: 67, 82  Servicio Bicimad, para consultar la estaci\u00f3n m\u00e1s cercana, acceda al mapa de geolocalizaci\u00f3n de las estaciones.","CLASE-VIA":"CALLE","NOMBRE-VIA":"ROSALIA DE CASTRO","NUM":80.0,"BARRIO":"PE\u00d1A GRANDE","DISTRITO":"FUENCARRAL-EL PARDO","COORDENADA-X":437809.0,"COORDENADA-Y":4481678.0,"LATITUD":40.4834669264,"LONGITUD":-3.7337736099},{"PK":5996759,"NOMBRE":"Parque de Gabriela Mistral","TRANSPORTE":"Bus: 67  Servicio Bicimad, para consultar la estaci\u00f3n m\u00e1s cercana, acceda al mapa de geolocalizaci\u00f3n de las estaciones.","CLASE-VIA":"CALLE","NOMBRE-VIA":"ROSALIA DE CASTRO","NUM":69.0,"BARRIO":"PE\u00d1A GRANDE","DISTRITO":"FUENCARRAL-EL PARDO","COORDENADA-X":437819.0,"COORDENADA-Y":4481789.0,"LATITUD":40.4844675225,"LONGITUD":-3.7336783174},{"PK":5996421,"NOMBRE":"Parque de Isabel Clara Eugenia","TRANSPORTE":"Bus: 9, 72, 125, 229","CLASE-VIA":"CALLE","NOMBRE-VIA":"MAR CASPIO","NUM":4.0,"BARRIO":"PINAR DEL REY","DISTRITO":"HORTALEZA","COORDENADA-X":445229.0,"COORDENADA-Y":4480527.0,"LATITUD":40.4736117979,"LONGITUD":-3.6461333173},{"PK":5992258,"NOMBRE":"Parque de Juan XXIII","TRANSPORTE":"Metro: Guzm\u00e1n el Bueno (l\u00ednea 6 y 7)  Servicio Bicimad, para consultar la estaci\u00f3n m\u00e1s cercana, acceda al mapa de geolocalizaci\u00f3n de las estaciones.","CLASE-VIA":"PASEO","NOMBRE-VIA":"JUAN XXIII","NUM":21.0,"BARRIO":"CIUDAD UNIVERSITARIA","DISTRITO":"MONCLOA-ARAVACA","COORDENADA-X":439483.0,"COORDENADA-Y":4478019.0,"LATITUD":40.4506199843,"LONGITUD":-3.7136749543},{"PK":5918577,"NOMBRE":"Parque de Las Cruces","TRANSPORTE":"Metro: Aluche (l\u00ednea 5) Bus: 17, 117, 121, 131, 139, 155 Renfe: Aluche  Servicio Bicimad, para consultar la estaci\u00f3n m\u00e1s cercana, acceda al mapa de geolocalizaci\u00f3n de las estaciones.","CLASE-VIA":"AVENIDA","NOMBRE-VIA":"POBLADOS","NUM":74.0,"BARRIO":"BUENAVISTA","DISTRITO":"CARABANCHEL","COORDENADA-X":435913.0,"COORDENADA-Y":4469938.0,"LATITUD":40.3774668992,"LONGITUD":-3.7547689345},{"PK":5995455,"NOMBRE":"Parque de Malmoe","TRANSPORTE":"Bus: 106  Servicio Bicimad, para consultar la estaci\u00f3n m\u00e1s cercana, acceda al mapa de geolocalizaci\u00f3n de las estaciones.","CLASE-VIA":"CALLE","NOMBRE-VIA":"MALMOE","NUM":2.0,"BARRIO":"PUEBLO NUEVO","DISTRITO":"CIUDAD LINEAL","COORDENADA-X":446914.0,"COORDENADA-Y":4474053.0,"LATITUD":40.4154086689,"LONGITUD":-3.6257273338},{"PK":6003963,"NOMBRE":"Parque de Manoteras","TRANSPORTE":"Metro: Manoteras (l\u00ednea 4) Bus: 7, 29  Servicio Bicimad, para consultar la estaci\u00f3n m\u00e1s cercana, acceda al mapa de geolocalizaci\u00f3n de las estaciones.","CLASE-VIA":"CALLE","NOMBRE-VIA":"BACARES","NUM":22.0,"BARRIO":"APOSTOL SANTIAGO","DISTRITO":"HORTALEZA","COORDENADA-X":443846.0,"COORDENADA-Y":4480874.0,"LATITUD":40.47665432,"LONGITUD":-3.6624901502},{"PK":5990633,"NOMBRE":"Parque de Pan Bendito","TRANSPORTE":"Bus: 47 , 108 , 118 , 121 , 131 Metro: Pan Bendito (l\u00ednea 11)  Servicio Bicimad, para consultar la estaci\u00f3n m\u00e1s cercana, acceda al mapa de geolocalizaci\u00f3n de las estaciones.","CLASE-VIA":"AVENIDA","NOMBRE-VIA":"POBLADOS","NUM":35.0,"BARRIO":"LAS AGUILAS","DISTRITO":"CARABANCHEL","COORDENADA-X":434869.0,"COORDENADA-Y":4471275.0,"LATITUD":40.38951896,"LONGITUD":-3.7674043637},{"PK":6000510,"NOMBRE":"Parque de Pe\u00f1agrande","TRANSPORTE":"Bus: 82  Servicio Bicimad, para consultar la estaci\u00f3n m\u00e1s cercana, acceda al mapa de geolocalizaci\u00f3n de las estaciones.","CLASE-VIA":"CALLE","NOMBRE-VIA":"LEOPOLDO ALAS CLARIN","NUM":53.0,"BARRIO":"PE\u00d1A GRANDE","DISTRITO":"FUENCARRAL-EL PARDO","COORDENADA-X":437890.0,"COORDENADA-Y":4481498.0,"LATITUD":40.4818514937,"LONGITUD":-3.7328003546},{"PK":6006849,"NOMBRE":"Parque de Pinar de Barajas","TRANSPORTE":"Bus: 114 , 115  Servicio Bicimad, para consultar la estaci\u00f3n m\u00e1s cercana, acceda al mapa de geolocalizaci\u00f3n de las estaciones.","CLASE-VIA":"AUTOVIA","NOMBRE-VIA":"A-2","NUM":700.0,"BARRIO":"PIOVERA","DISTRITO":"HORTALEZA","COORDENADA-X":446444.0,"COORDENADA-Y":4477834.0,"LATITUD":40.4494399959,"LONGITUD":-3.6315854281},{"PK":5979823,"NOMBRE":"Parque de Plata y Casta\u00f1ar","TRANSPORTE":"Bus: 22, 76  Servicio Bicimad, para consultar la estaci\u00f3n m\u00e1s cercana, acceda al mapa de geolocalizaci\u00f3n de las estaciones.","CLASE-VIA":"GLORIETA","NOMBRE-VIA":"MIRADOR DEL SUR","NUM":1.0,"BARRIO":"SAN ANDRES","DISTRITO":"VILLAVERDE","COORDENADA-X":439255.0,"COORDENADA-Y":4466714.0,"LATITUD":40.3487625503,"LONGITUD":-3.7152848707},{"PK":5983595,"NOMBRE":"Parque de Pradolongo","TRANSPORTE":"Metro: Hospital 12 de Octubre (l\u00ednea 3) Bus: 6 , 60 , 78 , 81 , 121 , 131 Cercan\u00edas RENFE: 12 de Octubre   Servicio Bicimad, para consultar la estaci\u00f3n m\u00e1s cercana, acceda al mapa de geolocalizaci\u00f3n de las estaciones.","CLASE-VIA":"AVENIDA","NOMBRE-VIA":"RAFAELA YBARRA","NUM":85.0,"BARRIO":"PRADOLONGO","DISTRITO":"USERA","COORDENADA-X":439561.0,"COORDENADA-Y":4469688.0,"LATITUD":40.3755761769,"LONGITUD":-3.7119637302},{"PK":5987347,"NOMBRE":"Parque de Rafael Finat","TRANSPORTE":"Bus: 17, 117, 139  Servicio Bicimad, para consultar la estaci\u00f3n m\u00e1s cercana, acceda al mapa de geolocalizaci\u00f3n de las estaciones.","CLASE-VIA":"CALLE","NOMBRE-VIA":"VIDAUBA","NUM":4.0,"BARRIO":"LAS AGUILAS","DISTRITO":"LATINA","COORDENADA-X":435155.0,"COORDENADA-Y":4470594.0,"LATITUD":40.3834065543,"LONGITUD":-3.7639655934},{"PK":5989182,"NOMBRE":"Parque de Salvador Allende","TRANSPORTE":"Bus: 35, 118,155, SE1, SE832 Metro: La Peseta (l\u00ednea 11)  Servicio Bicimad, para consultar la estaci\u00f3n m\u00e1s cercana, acceda al mapa de geolocalizaci\u00f3n de las estaciones.","CLASE-VIA":"CALLE","NOMBRE-VIA":"SALVADOR ALLENDE","NUM":3.0,"BARRIO":"BUENAVISTA","DISTRITO":"CARABANCHEL","COORDENADA-X":435693.0,"COORDENADA-Y":4468472.0,"LATITUD":40.3643414487,"LONGITUD":-3.7574020718},{"PK":5989658,"NOMBRE":"Parque de San Isidro","TRANSPORTE":"Metro: Marqu\u00e9s de Vadillo (l\u00ednea 5) Bus: 17 , 50  Servicio Bicimad, para consultar la estaci\u00f3n m\u00e1s cercana, acceda al mapa de geolocalizaci\u00f3n de las estaciones.","CLASE-VIA":"PASEO","NOMBRE-VIA":"ERMITA DEL SANTO","NUM":74.0,"BARRIO":"SAN ISIDRO","DISTRITO":"CARABANCHEL","COORDENADA-X":438180.0,"COORDENADA-Y":4472327.0,"LATITUD":40.3992481591,"LONGITUD":-3.7284983869},{"PK":6002086,"NOMBRE":"Parque de Santa Ana","TRANSPORTE":"Bus: 66, 137  Servicio Bicimad, para consultar la estaci\u00f3n m\u00e1s cercana, acceda al mapa de geolocalizaci\u00f3n de las estaciones.","CLASE-VIA":"CALLE","NOMBRE-VIA":"SAN CUGAT DEL VALLES","NUM":4.0,"BARRIO":"VALVERDE","DISTRITO":"FUENCARRAL-EL PARDO","COORDENADA-X":441227.0,"COORDENADA-Y":4483196.0,"LATITUD":40.4973815507,"LONGITUD":-3.6936009893},{"PK":6004232,"NOMBRE":"Parque de Villa Rosa-Paco Ca\u00f1o","TRANSPORTE":"Bus: 73 y 104  Servicio Bicimad, para consultar la estaci\u00f3n m\u00e1s cercana, acceda al mapa de geolocalizaci\u00f3n de las estaciones.","CLASE-VIA":"CALLE","NOMBRE-VIA":"ACONCAGUA","NUM":2.0,"BARRIO":"CANILLAS","DISTRITO":"HORTALEZA","COORDENADA-X":446458.0,"COORDENADA-Y":4479969.0,"LATITUD":40.4686741905,"LONGITUD":-3.6315886406},{"PK":5999142,"NOMBRE":"Parque de la Alcazaba","TRANSPORTE":"Bus: 42  Servicio Bicimad, para consultar la estaci\u00f3n m\u00e1s cercana, acceda al mapa de geolocalizaci\u00f3n de las estaciones.","CLASE-VIA":"CALLE","NOMBRE-VIA":"RIBADAVIA","NUM":45.0,"BARRIO":"EL PILAR","DISTRITO":"FUENCARRAL-EL PARDO","COORDENADA-X":440059.0,"COORDENADA-Y":4480461.0,"LATITUD":40.4726691564,"LONGITUD":-3.7071252266},{"PK":5995076,"NOMBRE":"Parque de la Almudena","TRANSPORTE":"Bus: 70 , 106  Servicio Bicimad, para consultar la estaci\u00f3n m\u00e1s cercana, acceda al mapa de geolocalizaci\u00f3n de las estaciones.","CLASE-VIA":"CALLE","NOMBRE-VIA":"NICOLAS SALMERON","NUM":4.0,"BARRIO":"PUEBLO NUEVO","DISTRITO":"CIUDAD LINEAL","COORDENADA-X":446349.0,"COORDENADA-Y":4474634.0,"LATITUD":40.4206064987,"LONGITUD":-3.6324237307},{"PK":5979865,"NOMBRE":"Parque de la Amistad","TRANSPORTE":"Metro: Villaverde Bajo - Cruce (linea 3) Bus: 18, 116  Servicio Bicimad, para consultar la estaci\u00f3n m\u00e1s cercana, acceda al mapa de geolocalizaci\u00f3n de las estaciones.","CLASE-VIA":"CALLE","NOMBRE-VIA":"SANTA PETRONILA","NUM":21.0,"BARRIO":"LOS ROSALES","DISTRITO":"VILLAVERDE","COORDENADA-X":441219.0,"COORDENADA-Y":4466649.0,"LATITUD":40.3483266316,"LONGITUD":-3.6921658728},{"PK":5992502,"NOMBRE":"Parque de la Bombilla","TRANSPORTE":"Metro: Pr\u00edncipe P\u00edo (l\u00edneas 6, 10 y R) Bus : 41, 46, 75, N20 Renfe: Pr\u00edncipe P\u00edo (L\u00edneas C1, C7, C10 y Regional)  Servicio Bicimad, para consultar la estaci\u00f3n m\u00e1s cercana, acceda al mapa de geolocalizaci\u00f3n de las estaciones.","CLASE-VIA":"AVENIDA","NOMBRE-VIA":"VALLADOLID","NUM":4.0,"BARRIO":"CASA DE CAMPO","DISTRITO":"MONCLOA-ARAVACA","COORDENADA-X":438169.0,"COORDENADA-Y":4475556.0,"LATITUD":40.4283445604,"LONGITUD":-3.7289419317},{"PK":5987416,"NOMBRE":"Parque de la Casa de Campo","TRANSPORTE":"Metro: Bat\u00e1n (l\u00ednea 10)  Servicio Bicimad, para consultar la estaci\u00f3n m\u00e1s cercana, acceda al mapa de geolocalizaci\u00f3n de las estaciones.","CLASE-VIA":"PASEO","NOMBRE-VIA":"PUERTA DEL ANGEL","NUM":1.0,"BARRIO":"CASA DE CAMPO","DISTRITO":"MONCLOA-ARAVACA","COORDENADA-X":438050.0,"COORDENADA-Y":4474045.0,"LATITUD":40.4147240714,"LONGITUD":-3.7301857405},{"PK":5984464,"NOMBRE":"Parque de la Cu\u00f1a Verde de Latina","TRANSPORTE":"Metro: Laguna (linea 6) Bus: 17 , 25 , 31 , 55 , 119  Servicio Bicimad, para consultar la estaci\u00f3n m\u00e1s cercana, acceda al mapa de geolocalizaci\u00f3n de las estaciones.","CLASE-VIA":"CALLE","NOMBRE-VIA":"CONCEJAL FRANCISCO JOSE JIMENEZ MARTIN","NUM":11.0,"BARRIO":"LUCERO","DISTRITO":"LATINA","COORDENADA-X":436469.0,"COORDENADA-Y":4472423.0,"LATITUD":40.3999842624,"LONGITUD":-3.7486569901},{"PK":5978380,"NOMBRE":"Parque de la Cu\u00f1a Verde de O\u00b4Donnell","TRANSPORTE":"Bus: 140  Servicio Bicimad, para consultar la estaci\u00f3n m\u00e1s cercana, acceda al mapa de geolocalizaci\u00f3n de las estaciones.","CLASE-VIA":"CALLE","NOMBRE-VIA":"FUENTE CARRANTONA","NUM":61.0,"BARRIO":"MARROQUINA","DISTRITO":"MORATALAZ","COORDENADA-X":446635.0,"COORDENADA-Y":4473699.0,"LATITUD":40.4122017765,"LONGITUD":-3.6289859759},{"PK":5981460,"NOMBRE":"Parque de la Dehesa Boyal","TRANSPORTE":"Bus: 59 y 79  Servicio Bicimad, para consultar la estaci\u00f3n m\u00e1s cercana, acceda al mapa de geolocalizaci\u00f3n de las estaciones.","CLASE-VIA":"CALLE","NOMBRE-VIA":"BURJASOT","NUM":1.0,"BARRIO":"SAN CRISTOBAL","DISTRITO":"VILLAVERDE","COORDENADA-X":441664.0,"COORDENADA-Y":4466224.0,"LATITUD":40.3445201999,"LONGITUD":-3.6868873647},{"PK":7767308,"NOMBRE":"Parque de la Gavia","TRANSPORTE":"Metro: La Gavia, Congosto (linea 1) Autob\u00fas: L\u00ednea 103  Servicio Bicimad, para consultar la estaci\u00f3n m\u00e1s cercana, acceda al mapa de geolocalizaci\u00f3n de las estaciones.","CLASE-VIA":"AVENIDA","NOMBRE-VIA":"MAYORAZGO","NUM":26.0,"BARRIO":"CASCO H.VALLECAS","DISTRITO":"VILLA DE VALLECAS","COORDENADA-X":446655.0,"COORDENADA-Y":4468783.0,"LATITUD":40.367916595,"LONGITUD":-3.6283267502},{"PK":5984552,"NOMBRE":"Parque de la Maceta","TRANSPORTE":"Metro: Vic\u00e1lvaro (l\u00ednea 9)  Bus: E3 , 4 , 100 , 106 , 130   Servicio Bicimad, para consultar la estaci\u00f3n m\u00e1s cercana, acceda al mapa de geolocalizaci\u00f3n de las estaciones.","CLASE-VIA":"AVENIDA","NOMBRE-VIA":"DAROCA","NUM":301.0,"BARRIO":"AMBROZ","DISTRITO":"VICALVARO","COORDENADA-X":447765.0,"COORDENADA-Y":4473268.0,"LATITUD":40.4083817268,"LONGITUD":-3.6156327652},{"PK":12006175,"NOMBRE":"Parque de la Monta\u00f1a Templo de Debod","TRANSPORTE":"No disponible","CLASE-VIA":"CALLE","NOMBRE-VIA":"PROFESOR MARTIN ALMAGRO BASCH","NUM":"No disponible","BARRIO":"CASA DE CAMPO","DISTRITO":"MONCLOA-ARAVACA","COORDENADA-X":438937.9342325304,"COORDENADA-Y":4475034.6172339153,"LATITUD":40.4230656072,"LONGITUD":-3.7168927333},{"PK":6002643,"NOMBRE":"Parque de la Supermanzana","TRANSPORTE":"Metro: Herrera Oria (l\u00ednea 9) Bus: 67, 83  Servicio Bicimad, para consultar la estaci\u00f3n m\u00e1s cercana, acceda al mapa de geolocalizaci\u00f3n de las estaciones.","CLASE-VIA":"CALLE","NOMBRE-VIA":"SANGENJO","NUM":27.0,"BARRIO":"LA PAZ","DISTRITO":"FUENCARRAL-EL PARDO","COORDENADA-X":440615.0,"COORDENADA-Y":4481861.0,"LATITUD":40.4853118912,"LONGITUD":-3.7006858825},{"PK":5966337,"NOMBRE":"Parque de la Ventilla","TRANSPORTE":"Bus: 42 , 67 , 147  Servicio Bicimad, para consultar la estaci\u00f3n m\u00e1s cercana, acceda al mapa de geolocalizaci\u00f3n de las estaciones.","CLASE-VIA":"CALLE","NOMBRE-VIA":"VIA LIMITE","NUM":51.0,"BARRIO":"ALMENARA","DISTRITO":"TETUAN","COORDENADA-X":441265.0,"COORDENADA-Y":4480535.0,"LATITUD":40.4734219381,"LONGITUD":-3.6929061067},{"PK":5986900,"NOMBRE":"Parque de la Vicalvarada","TRANSPORTE":"Bus: 4 , 100 , 106  Servicio Bicimad, para consultar la estaci\u00f3n m\u00e1s cercana, acceda al mapa de geolocalizaci\u00f3n de las estaciones.","CLASE-VIA":"CALLE","NOMBRE-VIA":"VILLABLANCA","NUM":1.0,"BARRIO":"AMBROZ","DISTRITO":"VICALVARO","COORDENADA-X":448361.0,"COORDENADA-Y":4473366.0,"LATITUD":40.4093018223,"LONGITUD":-3.6086050915},{"PK":11040844,"NOMBRE":"Parque de la Volater\u00eda","TRANSPORTE":"Metro: l\u00ednea 11 (San Francisco)  Bus: 116,121,131,155","CLASE-VIA":"AVENIDA","NOMBRE-VIA":"POBLADOS","NUM":110.0,"BARRIO":"BUENAVISTA","DISTRITO":"CARABANCHEL","COORDENADA-X":437808.0,"COORDENADA-Y":4469462.0,"LATITUD":40.3734272278,"LONGITUD":-3.7325812102},{"PK":6009708,"NOMBRE":"Parque de las Avenidas","TRANSPORTE":"Metro: Parque de las Avenidas (l\u00ednea 7) Bus: 53, 122, 74, 43, N3.  Servicio Bicimad, para consultar la estaci\u00f3n m\u00e1s cercana, acceda al mapa de geolocalizaci\u00f3n de las estaciones.","CLASE-VIA":"AVENIDA","NOMBRE-VIA":"BRASILIA","NUM":6.0,"BARRIO":"GUINDALERA","DISTRITO":"SALAMANCA","COORDENADA-X":443936.0,"COORDENADA-Y":4477011.0,"LATITUD":40.4418516836,"LONGITUD":-3.6610753473},{"PK":5965200,"NOMBRE":"Parque de las Delicias","TRANSPORTE":"Metro: Delicias (l\u00ednea 3) Bus: 8, 19, 45, 47, 59, 85, 86 y 247  Servicio Bicimad, para consultar la estaci\u00f3n m\u00e1s cercana, acceda al mapa de geolocalizaci\u00f3n de las estaciones.","CLASE-VIA":"CALLE","NOMBRE-VIA":"PARROCO EUSEBIO CUENCA","NUM":13.0,"BARRIO":"DELICIAS","DISTRITO":"ARGANZUELA","COORDENADA-X":441497.0,"COORDENADA-Y":4471970.0,"LATITUD":40.3962807686,"LONGITUD":-3.6893809208},{"PK":6005852,"NOMBRE":"Parque de los Llanos","TRANSPORTE":"Metro: Canillas (l\u00ednea 4). Bus: 73 , 112 , 120 , 122 , 153.  Servicio Bicimad, para consultar la estaci\u00f3n m\u00e1s cercana, acceda al mapa de geolocalizaci\u00f3n de las estaciones.","CLASE-VIA":"CALLE","NOMBRE-VIA":"DIONISIO INCA YUPANQUI","NUM":8.0,"BARRIO":"PIOVERA","DISTRITO":"HORTALEZA","COORDENADA-X":446748.0,"COORDENADA-Y":4479185.0,"LATITUD":40.4616211323,"LONGITUD":-3.6281020785},{"PK":5995181,"NOMBRE":"Parque de los Tilos","TRANSPORTE":"Bus: 70 y 106  Servicio Bicimad, para consultar la estaci\u00f3n m\u00e1s cercana, acceda al mapa de geolocalizaci\u00f3n de las estaciones.","CLASE-VIA":"CALLE","NOMBRE-VIA":"NICOLAS SALMERON","NUM":1.0,"BARRIO":"PUEBLO NUEVO","DISTRITO":"CIUDAD LINEAL","COORDENADA-X":446145.0,"COORDENADA-Y":4474809.0,"LATITUD":40.4221697591,"LONGITUD":-3.6348548962},{"PK":5965331,"NOMBRE":"Parque del Bronce","TRANSPORTE":"Bus: 62, 88 y 148  Servicio Bicimad, para consultar la estaci\u00f3n m\u00e1s cercana, acceda al mapa de geolocalizaci\u00f3n de las estaciones.","CLASE-VIA":"CALLE","NOMBRE-VIA":"BRONCE","NUM":5.0,"BARRIO":"LEGAZPI","DISTRITO":"ARGANZUELA","COORDENADA-X":441645.0,"COORDENADA-Y":4471324.0,"LATITUD":40.3904716362,"LONGITUD":-3.6875778883},{"PK":5980782,"NOMBRE":"Parque del Espinillo","TRANSPORTE":"Metro: Ciudad de los \u00c1ngeles (l\u00ednea 3) Bus: 23, 130  Servicio Bicimad, para consultar la estaci\u00f3n m\u00e1s cercana, acceda al mapa de geolocalizaci\u00f3n de las estaciones.","CLASE-VIA":"CALLE","NOMBRE-VIA":"UNANIMIDAD","NUM":23.0,"BARRIO":"LOS ROSALES","DISTRITO":"VILLAVERDE","COORDENADA-X":441812.0,"COORDENADA-Y":4468074.0,"LATITUD":40.3611965269,"LONGITUD":-3.6853017812},{"PK":5963461,"NOMBRE":"Parque del Museo del Prado","TRANSPORTE":"Metro: Atocha (l\u00ednea 1). Bus: 10 , 14 , 27 , 34 , 37 , 45 , 59 , 141. RENFE: Atocha RENFE.  Servicio Bicimad, para consultar la estaci\u00f3n m\u00e1s cercana, acceda al mapa de geolocalizaci\u00f3n de las estaciones.","CLASE-VIA":"PASEO","NOMBRE-VIA":"PRADO","NUM":11.0,"BARRIO":"LOS JERONIMOS","DISTRITO":"RETIRO","COORDENADA-X":441248.0,"COORDENADA-Y":4473911.0,"LATITUD":40.4137487602,"LONGITUD":-3.6924939831},{"PK":5982119,"NOMBRE":"Parque del Oeste","TRANSPORTE":"Metro: Moncloa (l\u00ednea 3 y 6) , Plaza de Espa\u00f1a (l\u00ednea 2, 3 y 10) y Pr\u00edncipe P\u00edo (l\u00ednea 6 y 10) Bus: 21, 46, 74, 160, 161, A Cercan\u00edas: Pr\u00edncipe P\u00edo   Servicio Bicimad, para consultar la estaci\u00f3n m\u00e1s cercana, acceda al mapa de geolocalizaci\u00f3n de las estaciones.","CLASE-VIA":"PASEO","NOMBRE-VIA":"CAMOENS Y VALERO","NUM":4.0,"BARRIO":"CASA DE CAMPO","DISTRITO":"MONCLOA-ARAVACA","COORDENADA-X":438237.0,"COORDENADA-Y":4475938.0,"LATITUD":40.4317964272,"LONGITUD":-3.7281634897},{"PK":5998633,"NOMBRE":"Parque del Pueblo del Pardo","TRANSPORTE":"Bus: 601  Servicio Bicimad, para consultar la estaci\u00f3n m\u00e1s cercana, acceda al mapa de geolocalizaci\u00f3n de las estaciones.","CLASE-VIA":"AVENIDA","NOMBRE-VIA":"GUARDIA","NUM":4.0,"BARRIO":"EL PARDO","DISTRITO":"FUENCARRAL-EL PARDO","COORDENADA-X":434317.0,"COORDENADA-Y":4485608.0,"LATITUD":40.5186002229,"LONGITUD":-3.7753787534},{"PK":6448176,"NOMBRE":"Pinar Santa Eugenia","TRANSPORTE":"Bus: 14, 58 RENFE: Santa Eugenia  Servicio Bicimad, para consultar la estaci\u00f3n m\u00e1s cercana, acceda al mapa de geolocalizaci\u00f3n de las estaciones.","CLASE-VIA":"CALLE","NOMBRE-VIA":"CERRO DE ALMODOVAR","NUM":1.0,"BARRIO":"CASCO H.VICALVARO","DISTRITO":"VICALVARO","COORDENADA-X":448620.0,"COORDENADA-Y":4470797.0,"LATITUD":40.3861906988,"LONGITUD":-3.6053454569},{"PK":10966448,"NOMBRE":"Plaza Mayor de Barajas","TRANSPORTE":"Metro: L\u00ednea 8 (Barajas)  Bus: 101  Servicio Bicimad, para consultar la estaci\u00f3n m\u00e1s cercana, acceda al mapa de geolocalizaci\u00f3n de las estaciones.","CLASE-VIA":"PLAZA","NOMBRE-VIA":"MAYOR DE BARAJAS","NUM":1.0,"BARRIO":"CASCO H.BARAJAS","DISTRITO":"BARAJAS","COORDENADA-X":451000.0,"COORDENADA-Y":4480474.0,"LATITUD":40.4735113714,"LONGITUD":-3.5780513201},{"PK":10966289,"NOMBRE":"Plaza de Murillo","TRANSPORTE":"Metro: l\u00ednea 1 (Atocha)  Bus: 10,14, 27, 34, 37, 45  Servicio Bicimad, para consultar la estaci\u00f3n m\u00e1s cercana, acceda al mapa de geolocalizaci\u00f3n de las estaciones.","CLASE-VIA":"PLAZA","NOMBRE-VIA":"MURILLO","NUM":1.0,"BARRIO":"LOS JERONIMOS","DISTRITO":"RETIRO","COORDENADA-X":441287.0,"COORDENADA-Y":4473817.0,"LATITUD":40.4129052187,"LONGITUD":-3.6920049318},{"PK":10984411,"NOMBRE":"Plaza de la Lealtad","TRANSPORTE":"Metro: l\u00ednea 1 (Atocha), l\u00ednea 2 (Banco de Espa\u00f1a) Bus: 10, 14,27,34,37,45  Servicio Bicimad, para consultar la estaci\u00f3n m\u00e1s cercana, acceda al mapa de geolocalizaci\u00f3n de las estaciones.","CLASE-VIA":"JARDINES","NOMBRE-VIA":"PLAZA DE LA LEALTAD","NUM":"No disponible","BARRIO":"No disponible","DISTRITO":"RETIRO","COORDENADA-X":441171.0,"COORDENADA-Y":4474258.0,"LATITUD":40.4168755153,"LONGITUD":-3.6934169058},{"PK":7642234,"NOMBRE":"Quinta de Torre Arias","TRANSPORTE":"Metro: Torre Arias (l\u00ednea 5) Bus: 104, 77, 140, 153.  Servicio Bicimad, para consultar la estaci\u00f3n m\u00e1s cercana, acceda al mapa de geolocalizaci\u00f3n de las estaciones.","CLASE-VIA":"CALLE","NOMBRE-VIA":"ALCALA","NUM":551.0,"BARRIO":"EL SALVADOR","DISTRITO":"SAN BLAS-CANILLEJAS","COORDENADA-X":447570.0,"COORDENADA-Y":4477155.0,"LATITUD":40.4433859457,"LONGITUD":-3.6182513752},{"PK":6030568,"NOMBRE":"Quinta de la Fuente del Berro","TRANSPORTE":"Metro: O'Donnell (linea 6) Autobuses: 2, 56, 69, 71, 143, 15, 28  Servicio Bicimad, para consultar la estaci\u00f3n m\u00e1s cercana, acceda al mapa de geolocalizaci\u00f3n de las estaciones.","CLASE-VIA":"CALLE","NOMBRE-VIA":"ENRIQUE D'ALMONTE","NUM":1.0,"BARRIO":"FUENTE DEL BERRO","DISTRITO":"SALAMANCA","COORDENADA-X":443759.0,"COORDENADA-Y":4474815.0,"LATITUD":40.4229973056,"LONGITUD":-3.662521363},{"PK":6024739,"NOMBRE":"Rosaleda de Madrid. Parque del Oeste","TRANSPORTE":"Transporte m\u00e1s pr\u00f3ximo Bus: 41, 46, 75   Tambi\u00e9n puedes acceder desde metro:   Arg&amp;uuml;elles   Pr\u00edncipe P\u00edo","CLASE-VIA":"CALLE","NOMBRE-VIA":"ROSALEDA","NUM":1.0,"BARRIO":"CASA DE CAMPO","DISTRITO":"MONCLOA-ARAVACA","COORDENADA-X":438729.0,"COORDENADA-Y":4475328.0,"LATITUD":40.4263320418,"LONGITUD":-3.7222987774},{"PK":6028228,"NOMBRE":"Vivero Estufas de El Retiro","TRANSPORTE":"Metro: Atocha (l\u00ednea 1), Ibiza (l\u00ednea 9) Bus: 26, 63 , 152, C1, C2  Servicio Bicimad, para consultar la estaci\u00f3n m\u00e1s cercana, acceda al mapa de geolocalizaci\u00f3n de las estaciones.","CLASE-VIA":"GLORIETA","NOMBRE-VIA":"ANGEL CAIDO","NUM":4.0,"BARRIO":"LOS JERONIMOS","DISTRITO":"RETIRO","COORDENADA-X":442107.0,"COORDENADA-Y":4473478.0,"LATITUD":40.4098992569,"LONGITUD":-3.6823305488},{"PK":6028009,"NOMBRE":"Vivero de la Casa de Campo","TRANSPORTE":"Metro: Pr\u00edncipe P\u00edo (l\u00edneas 6 y 10 y ramal), Lago (l\u00ednea 10)  Servicio Bicimad, para consultar la estaci\u00f3n m\u00e1s cercana, acceda al mapa de geolocalizaci\u00f3n de las estaciones.","CLASE-VIA":"PASEO","NOMBRE-VIA":"AZUL","NUM":2.0,"BARRIO":"CASA DE CAMPO","DISTRITO":"MONCLOA-ARAVACA","COORDENADA-X":438182.0,"COORDENADA-Y":4474613.0,"LATITUD":40.4198415869,"LONGITUD":-3.728696908},{"PK":6028007,"NOMBRE":"Vivero municipal de Migas Calientes","TRANSPORTE":"No disponible","CLASE-VIA":"AUTOVIA","NOMBRE-VIA":"M-30","NUM":2200.0,"BARRIO":"CIUDAD UNIVERSITARIA","DISTRITO":"MONCLOA-ARAVACA","COORDENADA-X":437249.0,"COORDENADA-Y":4477453.0,"LATITUD":40.4453555361,"LONGITUD":-3.739974261},{"PK":6126515,"NOMBRE":"Zona verde C\/ Fresnedillas","TRANSPORTE":"No disponible","CLASE-VIA":"CALLE","NOMBRE-VIA":"FRESNEDILLAS","NUM":1.0,"BARRIO":"FUENTELARREINA","DISTRITO":"FUENCARRAL-EL PARDO","COORDENADA-X":437021.0,"COORDENADA-Y":4480996.0,"LATITUD":40.4772638715,"LONGITUD":-3.7430025162},{"PK":6007791,"NOMBRE":"\u00c1rea Forestal de Tres Cantos","TRANSPORTE":"No disponible","CLASE-VIA":"CARRETERA","NOMBRE-VIA":"M-607","NUM":2100.0,"BARRIO":"EL PARDO","DISTRITO":"FUENCARRAL-EL PARDO","COORDENADA-X":440299.0,"COORDENADA-Y":4492636.0,"LATITUD":40.5823625177,"LONGITUD":-3.7054314643}]