[{"NOMBRE":"Centro de Turismo Plaza Mayor","LATITUD":40.4158385508,"LONGITUD":-3.7074257084,"COORDENADA-Y":4474154,"COORDENADA-X":439983,"TELEFONO":"915 787 810","EMAIL":"turismo@esmadrid.com","Metro":"Sol (líneas 1, 2, 3), Ópera (línea 2, 5, Ramal)","Bus":"17, 18, 23, 31, 50, 65","Renfe":"Sol (líneas C3, C4)","Bicimad":"Estaciones 31 (calle Mayor, 20), 32 (plaza Provincia , 1 )","Parking":"Plaza Mayor (55), Plaza Mayor","Aparcamiento":""},{"NOMBRE":"Centro de Turismo de Sol. Comunidad de Madrid","LATITUD":40.4166177754,"LONGITUD":-3.7028298995,"COORDENADA-Y":4474236,"COORDENADA-X":440372,"TELEFONO":"912 723 400","EMAIL":"turismo@madrid.org","Metro":"Sol (línea 1, 2, 3)","Bus":"002, M1, SE712","Renfe":"Sol (C3, C3a, C4)","Bicimad":"Estación 33 (calle Carretas, 8) \/ Estación 1 a y b (Puerta del Sol, 1)","Parking":"","Aparcamiento":""},{"NOMBRE":"Madrid Film Office","LATITUD":40.4157939804,"LONGITUD":-3.7074105137,"COORDENADA-Y":4474148,"COORDENADA-X":439983,"TELEFONO":"913 184 588","EMAIL":"info@madridfilmoffice.com","Metro":"Sol (líneas 1, 2 y 3), Ópera (líneas 2, 5, Ramal).","Bus":"50, 31, 65, SE712, 17, 002, 35, 18, 23. Cercanías","Renfe":"Sol (líneas C3, C3a y C4).","Bicimad":"Estación 32 (plaza Provincia, 1) \/ estación 31 (calle Mayor, 20).","Parking":"","Aparcamiento":"Plaza Mayor (55), Plaza Mayor."},{"NOMBRE":"Oficina Joven Comunidad de Madrid. TIVE. Moncloa","LATITUD":40.4344233197,"LONGITUD":-3.7177952512,"COORDENADA-Y":4476224,"COORDENADA-X":439119,"TELEFONO":"915 437 412","EMAIL":"correo.cridj@madrid.org","Metro":"Moncloa (líneas 3 y 6).","Bus":"1, 138, 44, 62, C2, 001, 132, 82, 16, 61, 133, 83, G, C1, 161, 46, 160, 162.","Renfe":"","Bicimad":"Estaciones 111 a y b (calle Arcipreste de Hita, 12), 110 (paseo de Moret, 2).","Parking":"","Aparcamiento":""},{"NOMBRE":"Oficina de Turismo de Andalucía en Madrid","LATITUD":40.424183525,"LONGITUD":-3.6738104954,"COORDENADA-Y":4475057,"COORDENADA-X":442841,"TELEFONO":"912 031 200","EMAIL":null,"Metro":"Goya (líneas 2, 4), O'Donnell (línea 6), Príncipe de Vergara (líneas 2, 9)","Bus":"30, C1, E4, 146, 21, 43, 53, 26, 61, E5, 215, C2, 152, 63","Renfe":"","Bicimad":"Estación 100 (calle Goya, 99)","Parking":"","Aparcamiento":"Felipe II (26), avenida. Felipe II y calle Goya)"},{"NOMBRE":"Oficina de Turismo de Andorra","LATITUD":40.4204639424,"LONGITUD":-3.6873880759,"COORDENADA-Y":4474654,"COORDENADA-X":441686,"TELEFONO":"914 317 453 \/ 900 834 804","EMAIL":"info.es@visitandorra.com","Metro":"Retiro (línea 2), Serrano (línea 4), Banco de España (línea 2) Autobuses: 28, 1, 146, 15, 19, 2, 20, 51, 52, 74, 9","Bus":"","Renfe":"","Bicimad":"Estación 60 (Plaza de la Independencia, 6) \/ estación 107 (calle Serrano, 8) Cercanias: Recoletos (C1, C2, C7, C8, C10)","Parking":"","Aparcamiento":""},{"NOMBRE":"Oficina de Turismo de Brasil","LATITUD":40.4301796004,"LONGITUD":-3.6927686005,"COORDENADA-Y":4475736,"COORDENADA-X":441238,"TELEFONO":"917 004 650","EMAIL":"secom.madrid@itamaraty.gov.br","Metro":"Alonso Martínez (líneas 4, 5, 10), Rubén Darío (línea 5), Colón (línea 4)","Bus":"7 Cercanías: Recoletos (C1, C2, C7, C8, C10)","Renfe":"","Bicimad":"","Parking":"","Aparcamiento":"Almagro (12), calle Almagro, 11"},{"NOMBRE":"Oficina de Turismo de Galicia en Madrid","LATITUD":40.4138411159,"LONGITUD":-3.6906090973,"COORDENADA-Y":4473920,"COORDENADA-X":441408,"TELEFONO":"915 954 214","EMAIL":"ot.gal.madrid@xunta.es","Metro":"","Bus":"19","Renfe":"","Bicimad":"Estación 68 (calle Espalter, 1)","Parking":"","Aparcamiento":""},{"NOMBRE":"Oficina de Turismo de Guatemala","LATITUD":40.4608158383,"LONGITUD":-3.6891774276,"COORDENADA-Y":4479133,"COORDENADA-X":441569,"TELEFONO":"913 440 347 \/ 913 441 417","EMAIL":"turismo@embajadaguatemala.es","Metro":"Cuzco (línea 10)","Bus":"147, 27, 5, 11, 40","Renfe":"","Bicimad":"","Parking":"","Aparcamiento":""},{"NOMBRE":"Oficina de Turismo de Irán","LATITUD":40.4375784193,"LONGITUD":-3.6848033506,"COORDENADA-Y":4476551,"COORDENADA-X":441920,"TELEFONO":"915 643 613","EMAIL":"iran@iransara.es","Metro":"Avenida de América (líneas 4, 6, 7, 9), Gregorio Marañón (líneas 7, 10), Núñez de Balboa (líneas 5, 9)","Bus":"16, 19, 51, 9, 12","Renfe":"","Bicimad":"Estación 140 (calle Velázquez, 130)","Parking":"","Aparcamiento":""},{"NOMBRE":"Oficina de Turismo de Jordania","LATITUD":40.4307015053,"LONGITUD":-3.67221419,"COORDENADA-Y":4475779,"COORDENADA-X":442981,"TELEFONO":null,"EMAIL":"spain@visitjordan.com","Metro":"Diego de León (líneas 4, 5 y 6), Manuel Becerra (líneas 2 y 6)","Bus":"12, 210, 43, 48, 56, C1, 1, 74","Renfe":"","Bicimad":"Estación 192 (avenida de los Toreros, 3) \/ Estación 145 (calle Ortega y Gasset, 87)","Parking":"","Aparcamiento":""},{"NOMBRE":"Oficina de Turismo de Malta","LATITUD":40.4356935877,"LONGITUD":-3.6896771896,"COORDENADA-Y":4476346,"COORDENADA-X":441505,"TELEFONO":"913 913 061","EMAIL":"maltaembassy.madrid@gov.mt","Metro":"Gregorio Marañón (líneas 7, 10), Rubén Darío (línea 5)","Bus":"16, 5, 61, 147, 40, 7, 14, 150, 27, 45,","Renfe":"","Bicimad":"Estación 141 (Paseo de la Castellana, 43)","Parking":"","Aparcamiento":""},{"NOMBRE":"Oficina de Turismo de Marruecos","LATITUD":40.4242090257,"LONGITUD":-3.7145745604,"COORDENADA-Y":4475087,"COORDENADA-X":439383,"TELEFONO":"915 412 995","EMAIL":null,"Metro":"Ventura Rodríguez (línea 3), Plaza de España (línea 3)","Bus":"62, 74","Renfe":"","Bicimad":"Estación 14 (calle Ventura Rodríguez, 2)","Parking":"","Aparcamiento":"Plaza de España (53), Plaza de España"},{"NOMBRE":"Oficina de Turismo de Perú","LATITUD":40.4296740072,"LONGITUD":-3.6792883341,"COORDENADA-Y":4475670,"COORDENADA-X":442381,"TELEFONO":"911 937 511","EMAIL":"info@oficinacomercialdeperu.es","Metro":"Lista (línea 4), Diego de León (línea 4, 5, 9), Núñez de Balboa (línea 5, 9)","Bus":"1, 74, 29, 52","Renfe":"","Bicimad":"Estación 186 (calle General Pardiñas, 56)","Parking":"","Aparcamiento":"Marqués de Salamanca (25), Plaza Marques de Salamanca"},{"NOMBRE":"Oficina de Turismo de Polonia","LATITUD":40.4247421396,"LONGITUD":-3.7128591035,"COORDENADA-Y":4475145,"COORDENADA-X":439529,"TELEFONO":"915 414 808","EMAIL":"info.es@polonia.travel","Metro":"Plaza de España (líneas 3, 10), Ventura Rodríguez (línea 3), Noviciado (línea 2)","Bus":"001, 1, 2, 133, 138, 44, C1, 62, 74","Renfe":"","Bicimad":"estaciñon 116 a y b (calle Princesa, 5)","Parking":"","Aparcamiento":"Plaza de España (53), Plaza de España"},{"NOMBRE":"Oficina de Turismo de Portugal","LATITUD":40.4299120623,"LONGITUD":-3.6847491581,"COORDENADA-Y":4475700,"COORDENADA-X":441918,"TELEFONO":"917 617 230","EMAIL":"info.espanha@turismodeportugal.pt","Metro":"Núñez de Balboa (líneas 5, 9), Serrano (línea 4), Velázquez (línea 4)","Bus":"1, 19, 51, 74, 9","Renfe":"","Bicimad":"Estación 103 (Calle José Ortega y Gasset, 4)","Parking":"","Aparcamiento":""},{"NOMBRE":"Oficina de Turismo de República Checa","LATITUD":40.4661950293,"LONGITUD":-3.6749261029,"COORDENADA-Y":4479722,"COORDENADA-X":442783,"TELEFONO":"913 592 527","EMAIL":"madrid@czechtourism.com","Metro":"Pío XII (línea 9), Duque de Pastrana (línea 9)","Bus":"150, 16, 29, 107, 70","Renfe":"","Bicimad":"","Parking":"","Aparcamiento":""},{"NOMBRE":"Oficina de Turismo de República Dominicana","LATITUD":40.4357408897,"LONGITUD":-3.6862702824,"COORDENADA-Y":4476348,"COORDENADA-X":441794,"TELEFONO":"914 177 375","EMAIL":"espana@mitur.gob.do","Metro":"Banco España (línea 2)","Bus":"14, 150, 27, 37, 45, 5, 53, C03, 203, E1, 001, 1, 146, 15, 2, 20, 51, 52, 74, 9","Renfe":"Recoletos","Bicimad":"","Parking":"","Aparcamiento":"Montalbán (49), calle Montalbán (entre calle Alfonso XI y paseo Prado)"},{"NOMBRE":"Oficina de Turismo de Turquía","LATITUD":40.4163955872,"LONGITUD":-3.6897865587,"COORDENADA-Y":4474203,"COORDENADA-X":441480,"TELEFONO":"915 597 014 \/ 915 597 114","EMAIL":"turquia@ktb.gov.tr","Metro":"Retiro (línea 2), Banco de España (línea 2), Estación del Arte (Atocha) (línea 1)","Bus":"19","Renfe":"Atocha (C1, C2, C3, C4, C5, C7, C10)","Bicimad":"Estación 65 (calle Antonio Maura, 15)","Parking":"","Aparcamiento":"Montalbán (49), calle Montalbán (entre calle Alfonso XI y paseo Prado)"},{"NOMBRE":"Oficina de Turismo de Túnez","LATITUD":40.4315808385,"LONGITUD":-3.7055131034,"COORDENADA-Y":4475899,"COORDENADA-X":440158,"TELEFONO":"915 481 435","EMAIL":"info.madrid@discovertunisia.com","Metro":"San Bernardo (líneas 2, 4), Quevedo (línea 2)","Bus":"3, 37, 149","Renfe":"","Bicimad":"Estación 3 (Plaza del Conde Suchil 2-4)","Parking":"","Aparcamiento":""},{"NOMBRE":"Oficina de Turismo de Venezuela","LATITUD":40.4532691849,"LONGITUD":-3.6928523641,"COORDENADA-Y":4478298,"COORDENADA-X":441251,"TELEFONO":"915 981 200","EMAIL":null,"Metro":"Santiago Bernabeu (línea 10), Cuzco (línea 10), Nuevos Ministerios (línea 6, 8, 10)","Bus":"43, 149, 5","Renfe":"","Bicimad":"Estación 156 (calle Sor Ángela de la Cruz, 2) Cercanías: Nuevos Ministerios (C1, C2, C3, C4, C7, C8, C10)","Parking":"","Aparcamiento":"Orense (22), avenida General Perón, 27"},{"NOMBRE":"Oficina de Turismo de la Comunidad de Madrid. Aeropuerto Adolfo Suárez Madrid Barajas (T4) - (T1)","LATITUD":40.4518873824,"LONGITUD":-3.5859807207,"COORDENADA-Y":4478080,"COORDENADA-X":450312,"TELEFONO":"913 338 247","EMAIL":"turismo@madrid.org","Metro":"Línea 8 - estación Aeropuerto T-4","Bus":"Línea 201 Barajas - Aeropuerto T4","Renfe":"","Bicimad":"","Parking":"","Aparcamiento":""},{"NOMBRE":"Oficina de Turismo de la Comunidad de Madrid. Estación de Atocha","LATITUD":40.4079119565,"LONGITUD":-3.6923163005,"COORDENADA-Y":4473263,"COORDENADA-X":441257,"TELEFONO":"915 284 630","EMAIL":"turismo@madrid.org","Metro":"Estación del Arte (Atocha) (línea 1)","Bus":"27, 34, C03, C1, 59, 6, 85, E1, 102, 86, C2, 001, 10, 14, 119, 36, 41, 19, 45, 26, 32","Renfe":"Atocha (C1, C2, C3, C4, C5, C7, C10)","Bicimad":"Estación 50 (calle Santa Isabel, 57) \/ Estación 51 (Ronda Atocha, 2)","Parking":"","Aparcamiento":"Sánchez Bustillo (37), calle Sánchez Bustillo"},{"NOMBRE":"Oficina de información turística de Castilla y León en Madrid","LATITUD":40.421770181,"LONGITUD":-3.6828394779,"COORDENADA-Y":4474796,"COORDENADA-X":442074,"TELEFONO":"915 780 324","EMAIL":"oficinademadridfundacionsiglo@gmail.com","Metro":"Retiro (línea 2), Principe de Vergara (línea 2), Velázquez (línea 4)","Bus":"146, 15, 52, 1, 19, 51, 74, 9, 20","Renfe":"","Bicimad":"Estación 102: calle Alcalá, 95 \/ Estación 96: calle Alcalá, 111","Parking":"","Aparcamiento":""},{"NOMBRE":"Oficina de promoción de Castilla - La Mancha en Madrid","LATITUD":40.4209012787,"LONGITUD":-3.7072953292,"COORDENADA-Y":4474714,"COORDENADA-X":439997,"TELEFONO":"680 221 008 \/ 682 227 249 (Whatsaap)","EMAIL":"infoopclm@jccm.es","Metro":"Santo Domingo (línea 2), Callao (líneas 1 y 3).","Bus":"001, 1, 2, 3, 46, 74, 133, 147, 148, 44, 75","Renfe":"","Bicimad":"Estación 2 (calle Miguel Moya, 1) \/ Estación 22 (calle Jacometrezzo, 3) \/ Estación 23 (Plaza Santo Domingo, 1) Aparcamientos: Isabel la Católica (98), Calle de Isabel la Católica \/ Luna-Tudescos (14), P. Sta M&amp;ordf; Soledad Torres Acosta \/ El Corte Inglés Callao (92), Plaza de Callao","Parking":"","Aparcamiento":""},{"NOMBRE":"Punto de Información Turística Aeropuerto Adolfo Suárez Madrid -  Barajas Terminal 2 (Entre salas 5 y 6)","LATITUD":40.4518873824,"LONGITUD":-3.5859807207,"COORDENADA-Y":4478080,"COORDENADA-X":450312,"TELEFONO":"915 787 810","EMAIL":"turismo@esmadrid.com","Metro":"Aeropuerto T2 (línea 8)","Bus":"200 y autobús Express aeropuerto","Renfe":"","Bicimad":"","Parking":"","Aparcamiento":""},{"NOMBRE":"Punto de Información Turística Aeropuerto Adolfo Suárez Madrid - Barajas Terminal 4 (Sala 10)","LATITUD":40.4518873824,"LONGITUD":-3.5859807207,"COORDENADA-Y":4478080,"COORDENADA-X":450312,"TELEFONO":"915 787 810","EMAIL":"turismo@esmadrid.com","Metro":"Aeropuerto T 4 (línea 8)","Bus":"200 y Exprés Aeropuerto","Renfe":"Aeropuerto T 4","Bicimad":"","Parking":"","Aparcamiento":""},{"NOMBRE":"Punto de Información Turística Palacio Real","LATITUD":40.4170006445,"LONGITUD":-3.7121662397,"COORDENADA-Y":4474285,"COORDENADA-X":439580,"TELEFONO":"915 787 810","EMAIL":"turismo@esmadrid.com","Metro":"Ópera (líneas 2, 5, R)","Bus":"3, 25, 39, 46, 75, 138, 148, C1","Renfe":"","Bicimad":"Estación 36 (Plaza de Ramales, 1)","Parking":"","Aparcamiento":""},{"NOMBRE":"Punto de Información Turística Reina Sofía","LATITUD":40.4086402934,"LONGITUD":-3.6939504103,"COORDENADA-Y":4473345,"COORDENADA-X":441118,"TELEFONO":"915 787 810","EMAIL":"turismo@esmadrid.com","Metro":"Estación del Arte (Atocha) (línea 1)","Bus":"6, 26, 27, 32, 34, C01, C1","Renfe":"Largo recorrido, AVE y cercanías","Bicimad":"Estación 50 (calle Santa Isabel, 57) \/ Estación 51 (Ronda de Atocha, 2)","Parking":"","Aparcamiento":"Sánchez Bustillo (37), Calle Sánchez Bustillo"},{"NOMBRE":"Punto de Información Turística de Cuesta de Moyano","LATITUD":40.4097819219,"LONGITUD":-3.6893720604,"COORDENADA-Y":4473468,"COORDENADA-X":441508,"TELEFONO":"915 787 810","EMAIL":"turismo@esmadrid.com","Metro":"Estación del Arte (Atocha) (línea 1)","Bus":"1, 10, 14, 19, 26, 27, 32, 34, 37, 45, C03, E1","Renfe":"Largo recorrido, AVE y cercanías","Bicimad":"Estación 81: Cuesta de Moyano (Calle Cuesta Moyano) \/ Estación 69: Puerta del Ángel Caído (Avenida de Alfonso XII, 54) \/ Estación 50: Museo Reina Sofía (calle Santa Isabel, 57) \/ Estación 67: Almadén (calle Almadén, 28)","Parking":"","Aparcamiento":""},{"NOMBRE":"Punto de Información Turística. CentroCentro","LATITUD":40.4190117674,"LONGITUD":-3.6922061117,"COORDENADA-Y":4474496,"COORDENADA-X":441277,"TELEFONO":"915 787 810","EMAIL":"turismo@esmadrid.com","Metro":"Banco de España (línea 2)","Bus":"1, 2, 5, 9, 10, 14, 15, 20, 27, 34, 37, 45, 51, 52, 53, 74, 146, 150, 203, C03, E1","Renfe":"Recoletos","Bicimad":"Estación 86 (Plaza de Cibeles)","Parking":"","Aparcamiento":""},{"NOMBRE":"Punto de Información Turística. Estadio Santiago Bernabéu","LATITUD":40.4514659164,"LONGITUD":-3.6900860679,"COORDENADA-Y":4478096,"COORDENADA-X":441484,"TELEFONO":"915 787 810","EMAIL":"turismo@esmadrid.com","Metro":"Santiago Bernabeu (línea 10)","Bus":"27, 40, 126, 147 y 150","Renfe":"","Bicimad":"","Parking":"","Aparcamiento":""},{"NOMBRE":"Punto de Información Turística. Paseo del Prado","LATITUD":40.4168857634,"LONGITUD":-3.6921843227,"COORDENADA-Y":4474259,"COORDENADA-X":441276,"TELEFONO":"915 787 810","EMAIL":"turismo@esmadrid.com","Metro":"Banco de España (línea 2)","Bus":"1, 10, 14, 27, 34, 37, 45, C03","Renfe":"","Bicimad":"","Parking":"","Aparcamiento":""},{"NOMBRE":"Punto de Información Turística. Plaza de Callao","LATITUD":40.4197473576,"LONGITUD":-3.7061346665,"COORDENADA-Y":4474587,"COORDENADA-X":440096,"TELEFONO":"915 787 810","EMAIL":"turismo@esmadrid.com","Metro":"Callao (líneas 1, 3, 5)","Bus":"1, 2, 3, 46, 74, 75, 146, 148","Renfe":"","Bicimad":"Estación 22 (Calle Jacometrezo, 3)\/ Estación 2 (Calle Miguel Moya, 1)","Parking":"","Aparcamiento":"El Corte Inglés Callao (92), Plaza de Callao"},{"NOMBRE":"Servicio de Atención al Turista Extranjero (SATE). Comisaría de Retiro","LATITUD":40.4128573567,"LONGITUD":-3.6949678662,"COORDENADA-Y":4473813,"COORDENADA-X":441036,"TELEFONO":"915 787 810","EMAIL":"satemadrid@esmadrid.com","Metro":"Antón Martín (línea 1).","Bus":"001, 10, 14, 27, 34, 37, 45, C03.","Renfe":"","Bicimad":"Estación 27 (calle Jesús, 1).","Parking":"","Aparcamiento":""}]